<?xml version="1.0" encoding="UTF-8"?>
<stations>
<station><name>Лунинец-Стык</name><esr>139707</esr><sign>10</sign><dep>30601</dep><x>413.5</x><y>580.4</y><angle>115</angle><x2>410.7</x2><y2>575.4</y2><angle2>110</angle2></station>
<station><name>Барановичи-Северные</name><esr>138437</esr><sign>10</sign><dep>30601</dep><x>304.6</x><y>388.45</y><angle>-15</angle><x2>299.9</x2><y2>379.9</y2><angle2>-39.693</angle2><lat>53.153916500000001</lat><lon>26.015454800000001</lon></station>
<station><name>Гутно</name><esr>138009</esr><sign>10</sign><dep>30601</dep><x>299.8</x><y>269.8</y><angle>65</angle><x2>297.6</x2><y2>255.85</y2><angle2>65</angle2><lat>53.917515100000003</lat><lon>25.3656702</lon></station>
<station><name>Друть</name><esr>157300</esr><sign>10</sign><dep>30901</dep><x>717.6</x><y>398.9</y><angle>-105</angle><x2>708.75</x2><y2>395.85</y2><angle2>55</angle2><lat>53.704139699999999</lat><lon>29.775350199999998</lon></station>
<station><name>Осиповичи II</name><esr>146414</esr><sign>10</sign><dep>30901</dep><x>650.65</x><y>444.1</y><angle>-105</angle><x2>656.25</x2><y2>432.35</y2><angle2>55</angle2><lat>53.301929999999999</lat><lon>28.702940000000002</lon></station>
<station><name>Колосово</name><esr>138738</esr><sign>10</sign><dep>30601</dep><x>408.65</x><y>378</y><angle>50</angle><x2>406.95</x2><y2>373.45</y2><angle2>-105</angle2><lat>53.528598099999996</lat><lon>26.925820999999999</lon></station>
<station><name>Тереховка-стык</name><esr>150782</esr><sign>10</sign><dep>30801</dep><x>916.85</x><y>725.65</y><angle>155</angle><x2>931</x2><y2>720.55</y2><angle2>150</angle2></station>
<station><name>Копцевичи</name><esr>153507</esr><sign>10</sign><dep>30801</dep><x>570.75</x><y>607.05</y><angle>99</angle><x2>565.45</x2><y2>602.1</y2><angle2>99</angle2><lat>52.228199400000001</lat><lon>28.315641299999999</lon></station>
<station><name>Мышанка</name><esr>153719</esr><sign>10</sign><dep>30801</dep><x>611.9</x><y>614.3</y><angle>99</angle><x2>599.05</x2><y2>607.4</y2><angle2>99</angle2><lat>52.175202300000002</lat><lon>28.950309300000001</lon></station>
<station><name>Кацуры</name><esr>153723</esr><sign>10</sign><dep>30801</dep><x>621.6</x><y>615.9</y><angle>99</angle><x2>604.05</x2><y2>608.3</y2><angle2>99</angle2><lat>52.165298900000003</lat><lon>29.024115500000001</lon></station>
<station><name>Старушки</name><esr>153329</esr><sign>10</sign><dep>30801</dep><x>563.5</x><y>605.4</y><angle>99</angle><x2>561</x2><y2>601.4</y2><angle2>99</angle2><lat>52.253917299999998</lat><lon>28.144739999999999</lon></station>
<station><name>Жлобин-Северный</name><esr>155822</esr><sign>10</sign><dep>30801</dep><x>756.15</x><y>461.9</y><angle>0</angle><x2>766.65</x2><y2>453.4</y2><angle2>0</angle2><lat>52.9155479</lat><lon>30.0047198</lon></station>
<station><name>Жлобин</name><esr>155004</esr><sign>11</sign><dep>30801</dep><x>787.8</x><y>515.9</y><angle>-30</angle><x2>799.05</x2><y2>509.7</y2><angle2>-30</angle2><lat>52.890053999999999</lat><lon>30.037011100000001</lon></station>
<station><name>Салтановка</name><esr>155112</esr><sign>10</sign><dep>30801</dep><x>803.9</x><y>542.5</y><angle>-30</angle><x2>815.6</x2><y2>536.6</y2><angle2>-30</angle2><lat>52.816510000000001</lat><lon>30.33634</lon></station>
<station><name>Якимовка</name><esr>154834</esr><sign>10</sign><dep>30801</dep><x>812.15</x><y>646.9</y><angle>95</angle><x2>810.2</x2><y2>646.45</y2><angle2>-80</angle2><lat>52.368255400000002</lat><lon>30.586029799999999</lon></station>
<station><name>Лукское</name><esr>155818</esr><sign>10</sign><dep>30801</dep><x>756.15</x><y>455.9</y><angle>0</angle><x2>766.65</x2><y2>442.85</y2><angle2>0</angle2><lat>52.987401300000002</lat><lon>30.005214800000001</lon></station>
<station><name>Фариново</name><esr>165203</esr><sign>10</sign><dep>31001</dep><x>604.65</x><y>145.65</y><angle>62</angle><x2>601</x2><y2>133.15</y2><angle2>65.252</angle2><lat>55.424181900000001</lat><lon>28.582322099999999</lon></station>
<station><name>Глушанино (рзд)</name><esr>161113</esr><sign>10</sign><dep>31001</dep><x>698.25</x><y>119</y><angle>-90</angle><x2>703.65</x2><y2>101.35</y2><angle2>-90</angle2><lat>55.394317299999997</lat><lon>29.1463739</lon></station>
<station><name>Княгинин</name><esr>163706</esr><sign>10</sign><dep>30501</dep><x>514.35</x><y>185.15</y><angle>62</angle><x2>517.2</x2><y2>169.55</y2><angle2>65.268</angle2><lat>54.6746883</lat><lon>27.182946300000001</lon></station>
<station><name>Орша-Центральная</name><esr>166403</esr><sign>11</sign><dep>30501</dep><x>779.15</x><y>222.9</y><angle>-91</angle><x2>791.25</x2><y2>208.8</y2><angle2>-89.517</angle2><lat>54,5208311</lat><lon>30,3756784</lon></station>
<station><name>Юхновичи</name><esr>133113</esr><sign>10</sign><dep>30701</dep><x>323.95</x><y>553</y><angle>115</angle><x2>287.65</x2><y2>538.6</y2><angle2>110</angle2><lat>52.121629499999997</lat><lon>25.730043999999999</lon></station>
<station><name>Негорелое-стык</name><esr>144014</esr><sign>10</sign><dep>30501</dep><x>425.6</x><y>373.15</y><angle>50</angle><x2>426.8</x2><y2>367.65</y2><angle2>-105</angle2></station>
<station><name>Парохонск</name><esr>133400</esr><sign>10</sign><dep>30701</dep><x>372.35</x><y>568.3</y><angle>115</angle><x2>323.9</x2><y2>549.2</y2><angle2>110</angle2><lat>52.247913699999998</lat><lon>26.409907499999999</lon></station>
<station><name>Пост №2</name><esr>168771</esr><sign>10</sign><dep>30501</dep><x>750.65</x><y>211.8</y><angle>-89</angle><x2>760.5</x2><y2>198.2</y2><angle2>-90</angle2></station>
<station><name>Ясельда</name><esr>133325</esr><sign>10</sign><dep>30701</dep><x>352.2</x><y>561.85</y><angle>115</angle><x2>305.7</x2><y2>543.9</y2><angle2>110</angle2><lat>52.1754873</lat><lon>26.2521366</lon></station>
<station><name>Горынь</name><esr>139209</esr><sign>10</sign><dep>30601</dep><x>445.8</x><y>617.5</y><angle>154</angle><x2>439.65</x2><y2>603.2</y2><angle2>145</angle2><lat>51.852064300000002</lat><lon>26.783743900000001</lon></station>
<station><name>Радошковичи</name><esr>143505</esr><sign>10</sign><dep>30501</dep><x>480.55</x><y>271.5</y><angle>-30</angle><x2>481.45</x2><y2>258.15</y2><angle2>-30</angle2><lat>54.069395</lat><lon>27.212822899999999</lon></station>
<station><name>Ляховичи</name><esr>139904</esr><sign>10</sign><dep>30601</dep><x>365.1</x><y>500.55</y><angle>0</angle><x2>366</x2><y2>493.55</y2><angle2>145</angle2><lat>53.028964899999998</lat><lon>26.227624200000001</lon></station>
<station><name>Коханово</name><esr>142108</esr><sign>10</sign><dep>30501</dep><x>728.9</x><y>242.45</y><angle>35</angle><x2>731.6</x2><y2>232.8</y2><angle2>65</angle2><lat>54.470343499999998</lat><lon>30.035517200000001</lon></station>
<station><name>Гродзянка</name><esr>146306</esr><sign>10</sign><dep>30901</dep><x>628.05</x><y>386.85</y><angle>-180</angle><x2>630.2</x2><y2>370.8</y2><angle2>0.261</angle2><lat>53.5457544</lat><lon>28.743144900000001</lon></station>
<station><name>Люща</name><esr>139502</esr><sign>10</sign><dep>30601</dep><x>403.85</x><y>557</y><angle>0</angle><x2>396.25</x2><y2>538.5</y2><angle2>145</angle2><lat>52.449018700000003</lat><lon>26.710095500000001</lon></station>
<station><name>Мальковичи</name><esr>139514</esr><sign>10</sign><dep>30601</dep><x>396.55</x><y>546.55</y><angle>0</angle><x2>390.55</x2><y2>530</y2><angle2>145</angle2><lat>52.537285599999997</lat><lon>26.582773</lon></station>
<station><name>Бобруйск</name><esr>147008</esr><sign>10</sign><dep>30901</dep><x>683.15</x><y>498.9</y><angle>180</angle><x2>692.35</x2><y2>489.7</y2><angle2>133</angle2><lat>53.137653399999998</lat><lon>29.1951967</lon></station>
<station><name>Горочичи</name><esr>154105</esr><sign>10</sign><dep>30801</dep><x>741.9</x><y>591.85</y><angle>-160</angle><x2>752.5</x2><y2>578.5</y2><angle2>32</angle2><lat>52.269983400000001</lat><lon>29.420223</lon></station>
<station><name>Кореневка</name><esr>150250</esr><sign>10</sign><dep>30801</dep><x>892.65</x><y>690.15</y><angle>-30</angle><x2>904.85</x2><y2>685.05</y2><angle2>-30</angle2><lat>52.3541466</lat><lon>31.117533900000002</lon></station>
<station><name>Житковичи</name><esr>153301</esr><sign>10</sign><dep>30801</dep><x>547.45</x><y>603.8</y><angle>99</angle><x2>547</x2><y2>598.9</y2><angle2>99</angle2><lat>52.218848800000004</lat><lon>27.8564848</lon></station>
<station><name>Пост №   1</name><esr>138583</esr><sign>10</sign><dep>30601</dep><x>149</x><y>706.9</y><angle>0</angle><x2>149</x2><y2>706.9</y2><angle2>0</angle2></station>
<station><name>Язвино</name><esr>160055</esr><sign>10</sign><dep>31001</dep><x>734.55</x><y>119</y><angle>-90</angle><x2>732.6</x2><y2>101.3</y2><angle2>-90</angle2><lat>55.263822699999999</lat><lon>29.7611445</lon></station>
<station><name>Кричев II</name><esr>158820</esr><sign>10</sign><dep>30901</dep><x>927.15</x><y>369.9</y><angle>-90</angle><x2>941.7</x2><y2>359.45</y2><angle2>-90</angle2><lat>53.725873399999998</lat><lon>31.848443700000001</lon></station>
<station><name>Лепель</name><esr>168108</esr><sign>10</sign><dep>30501</dep><x>623.15</x><y>211.9</y><angle>-89</angle><x2>627.75</x2><y2>197.6</y2><angle2>-90</angle2><lat>54.875435400000001</lat><lon>28.6910794</lon></station>
<station><name>Тевли</name><esr>131245</esr><sign>10</sign><dep>30701</dep><x>193.25</x><y>493.3</y><angle>50</angle><x2>189.4</x2><y2>488.95</y2><angle2>-128</angle2><lat>52.340478300000001</lat><lon>24.2367499</lon></station>
<station><name>Боровцы</name><esr>137129</esr><sign>10</sign><dep>30601</dep><x>255.4</x><y>419.9</y><angle>-60</angle><x2>248.65</x2><y2>412</y2><angle2>-74</angle2><lat>53.106923999999999</lat><lon>25.938516199999999</lon></station>
<station><name>Слоним</name><esr>137006</esr><sign>10</sign><dep>30601</dep><x>215.05</x><y>406.15</y><angle>-60</angle><x2>210.75</x2><y2>398.55</y2><angle2>-74</angle2><lat>53.095269000000002</lat><lon>25.3435986</lon></station>
<station><name>Домашевичи</name><esr>138422</esr><sign>10</sign><dep>30601</dep><x>298.1</x><y>371.45</y><angle>-15</angle><x2>292.25</x2><y2>358.3</y2><angle2>-20</angle2><lat>53.192803599999998</lat><lon>25.931820899999998</lon></station>
<station><name>Калий IV</name><esr>148509</esr><sign>10</sign><dep>30901</dep><x>547.15</x><y>541.9</y><angle>0</angle><x2>550.65</x2><y2>536.6</y2><angle2>0</angle2><lat>52.806243899999998</lat><lon>27.762369700000001</lon></station>
<station><name>Чашники</name><esr>168305</esr><sign>10</sign><dep>30501</dep><x>642.15</x><y>211.9</y><angle>-89</angle><x2>649.45</x2><y2>197.8</y2><angle2>-90</angle2><lat>54.859683799999999</lat><lon>29.162957899999999</lon></station>
<station><name>Лисички</name><esr>150246</esr><sign>10</sign><dep>30801</dep><x>887.8</x><y>682.85</y><angle>-30</angle><x2>902.65</x2><y2>681.5</y2><angle2>-30</angle2><lat>52.383929799999997</lat><lon>31.061951199999999</lon></station>
<station><name>Пхов</name><esr>151802</esr><sign>10</sign><dep>30801</dep><x>662.75</x><y>628.8</y><angle>0</angle><x2>674.3</x2><y2>637.75</y2><angle2>180</angle2><lat>52.086117299999998</lat><lon>29.236320299999999</lon></station>
<station><name>Брожа</name><esr>147506</esr><sign>10</sign><dep>30901</dep><x>683.15</x><y>527.9</y><angle>180</angle><x2>687.3</x2><y2>518.3</y2><angle2>0</angle2><lat>52.951983900000002</lat><lon>29.113189500000001</lon></station>
<station><name>Веремейки</name><esr>158106</esr><sign>10</sign><dep>30901</dep><x>872.15</x><y>365.85</y><angle>90</angle><x2>867.5</x2><y2>359.4</y2><angle2>-90</angle2><lat>53.762492799999997</lat><lon>31.276133600000001</lon></station>
<station><name>Сенкевичи</name><esr>151925</esr><sign>10</sign><dep>30601</dep><x>478.85</x><y>592.5</y><angle>99</angle><x2>496.7</x2><y2>590.8</y2><angle2>99</angle2><lat>52.208941000000003</lat><lon>27.259537699999999</lon></station>
<station><name>Кобрин</name><esr>132708</esr><sign>10</sign><dep>30701</dep><x>244.9</x><y>529.6</y><angle>115</angle><x2>222.05</x2><y2>518.6</y2><angle2>110</angle2><lat>52.223703800000003</lat><lon>24.345527700000002</lon></station>
<station><name>Трудовая</name><esr>133005</esr><sign>10</sign><dep>30701</dep><x>298.15</x><y>545.75</y><angle>115</angle><x2>277.85</x2><y2>535.55</y2><angle2>110</angle2><lat>52.146211800000003</lat><lon>25.3924804</lon></station>
<station><name>Жабинка (эксп.)</name><esr>131300</esr><sign>11</sign><dep>30701</dep><x>178.75</x><y>506.2</y><angle>50</angle><x2>170.15</x2><y2>504.4</y2><angle2>-128</angle2></station>
<station><name>Янов-Полесский</name><esr>133109</esr><sign>10</sign><dep>30701</dep><x>309.45</x><y>548.95</y><angle>115</angle><x2>282.8</x2><y2>536.8</y2><angle2>110</angle2><lat>52.129436599999998</lat><lon>25.551672400000001</lon></station>
<station><name>Береза Картузская</name><esr>133700</esr><sign>10</sign><dep>30701</dep><x>213.45</x><y>477.95</y><angle>50</angle><x2>216.25</x2><y2>467.5</y2><angle2>-128</angle2><lat>52.532955800000003</lat><lon>24.8994255</lon></station>
<station><name>Бронная Гора</name><esr>134008</esr><sign>10</sign><dep>30701</dep><x>221.5</x><y>470.7</y><angle>50</angle><x2>226.25</x2><y2>459.4</y2><angle2>-128</angle2><lat>52.606668599999999</lat><lon>25.092379999999999</lon></station>
<station><name>Брест-Полесский</name><esr>130308</esr><sign>11</sign><dep>30701</dep><x>127.1</x><y>552.2</y><angle>148</angle><x2>116.15</x2><y2>545.4</y2><angle2>145</angle2><lat>52.094587699999998</lat><lon>23.710501700000002</lon></station>
<station><name>Брест-Северный</name><esr>130100</esr><sign>10</sign><dep>30701</dep><x>115</x><y>524.75</y><angle>-180</angle><x2>103.1</x2><y2>517.6</y2><angle2>-180</angle2><lat>52.112074300000003</lat><lon>23.655710599999999</lon></station>
<station><name>Влодава</name><esr>132407</esr><sign>10</sign><dep>30701</dep><x>61.8</x><y>615.1</y><angle>55</angle><x2>47.5</x2><y2>612.15</y2><angle2>55</angle2><lat>51.550916399999998</lat><lon>23.6123409</lon></station>
<station><name>Брест-Восточный</name><esr>130204</esr><sign>11</sign><dep>30701</dep><x>142.45</x><y>535.25</y><angle>-60</angle><x2>136.25</x2><y2>526.1</y2><angle2>40</angle2><lat>52.110167400000002</lat><lon>23.7270495</lon></station>
<station><name>Каменная</name><esr>130914</esr><sign>10</sign><dep>30701</dep><x>145.8</x><y>680.3</y><angle>0</angle><x2>145.8</x2><y2>680.3</y2><angle2>0</angle2><lat>52.006101999999998</lat><lon>23.8213796</lon></station>
<station><name>Жабинка</name><esr>131207</esr><sign>11</sign><dep>30701</dep><x>168.25</x><y>513.45</y><angle>50</angle><x2>165.75</x2><y2>507.9</y2><angle2>-128</angle2><lat>52.201047199999998</lat><lon>24.016673399999998</lon></station>
<station><name>Оранчицы</name><esr>133607</esr><sign>10</sign><dep>30701</dep><x>202.95</x><y>486.05</y><angle>50</angle><x2>200.8</x2><y2>479.75</y2><angle2>-128</angle2><lat>52.470383400000003</lat><lon>24.522593700000002</lon></station>
<station><name>Высоко-Литовск (эксп.)</name><esr>131809</esr><sign>11</sign><dep>30701</dep><x>104.55</x><y>444.9</y><angle>0</angle><x2>92.8</x2><y2>430.95</y2><angle2>0</angle2></station>
<station><name>Свислочь (эксп.)</name><esr>135706</esr><sign>11</sign><dep>30601</dep><x>120.65</x><y>411</y><angle>20</angle><x2>110.3</x2><y2>401.9</y2><angle2>55</angle2></station>
<station><name>Закрутин</name><esr>132500</esr><sign>10</sign><dep>30701</dep><x>148.85</x><y>591.7</y><angle>-40</angle><x2>143.6</x2><y2>593.95</y2><angle2>-35</angle2><lat>51.946258899999997</lat><lon>23.914662700000001</lon></station>
<station><name>Хотислав (эксп.)</name><esr>132106</esr><sign>11</sign><dep>30701</dep><x>168.25</x><y>618.35</y><angle>-40</angle><x2>159.9</x2><y2>616.95</y2><angle2>-35</angle2></station>
<station><name>Дубица</name><esr>132303</esr><sign>10</sign><dep>30701</dep><x>94.85</x><y>594.1</y><angle>55</angle><x2>84.35</x2><y2>588.25</y2><angle2>55</angle2><lat>51.804636500000001</lat><lon>23.644372099999998</lon></station>
<station><name>Хотислав</name><esr>132002</esr><sign>10</sign><dep>30701</dep><x>165.05</x><y>614.3</y><angle>-40</angle><x2>157.9</x2><y2>613.7</y2><angle2>-35</angle2><lat>51.704786499999997</lat><lon>24.174034500000001</lon></station>
<station><name>Брест-Южный</name><esr>130837</esr><sign>10</sign><dep>30701</dep><x>131.95</x><y>569.1</y><angle>-40</angle><x2>122.25</x2><y2>563.8</y2><angle2>-35</angle2><lat>52.064388399999999</lat><lon>23.750191600000001</lon></station>
<station><name>Горынь (эксп.)</name><esr>138808</esr><sign>11</sign><dep>30601</dep><x>448.2</x><y>622.75</y><angle>154</angle><x2>442.6</x2><y2>607.85</y2><angle2>145</angle2></station>
<station><name>Пинск</name><esr>133202</esr><sign>10</sign><dep>30701</dep><x>340.1</x><y>558.65</y><angle>115</angle><x2>301.1</x2><y2>542.55</y2><angle2>110</angle2><lat>52.122489999999999</lat><lon>26.08765</lon></station>
<station><name>Гуды</name><esr>137701</esr><sign>10</sign><dep>30601</dep><x>259.4</x><y>271.5</y><angle>-20</angle><x2>251.2</x2><y2>253.85</y2><angle2>-20</angle2><lat>53.958326900000003</lat><lon>25.2654134</lon></station>
<station><name>Аульс</name><esr>135301</esr><sign>10</sign><dep>30601</dep><x>119.85</x><y>298.1</y><angle>-75</angle><x2>110.65</x2><y2>286.65</y2><angle2>-75</angle2><lat>53.673990600000003</lat><lon>23.960950700000001</lon></station>
<station><name>Лида</name><esr>137608</esr><sign>11</sign><dep>30601</dep><x>264.25</x><y>282.8</y><angle>12</angle><x2>257.6</x2><y2>272.8</y2><angle2>-53.73</angle2><lat>53.882376200000003</lat><lon>25.293666600000002</lon></station>
<station><name>Бастуны</name><esr>137805</esr><sign>10</sign><dep>30601</dep><x>256.2</x><y>261.8</y><angle>-20</angle><x2>247.8</x2><y2>244.05</y2><angle2>-20</angle2><lat>54.0783913</lat><lon>25.293783600000001</lon></station>
<station><name>Беняконе</name><esr>137909</esr><sign>10</sign><dep>30601</dep><x>252.15</x><y>251.3</y><angle>-20</angle><x2>244.35</x2><y2>234.95</y2><angle2>-20</angle2><lat>54.245310799999999</lat><lon>25.353107399999999</lon></station>
<station><name>Беняконе (эксп.)</name><esr>136605</esr><sign>11</sign><dep>30601</dep><x>250.55</x><y>246.5</y><angle>-20</angle><x2>242.5</x2><y2>229.5</y2><angle2>-20</angle2></station>
<station><name>Гавья</name><esr>162309</esr><sign>10</sign><dep>30601</dep><x>319.1</x><y>263.35</y><angle>65</angle><x2>315.7</x2><y2>248.8</y2><angle2>65</angle2><lat>53.978266099999999</lat><lon>25.652398000000002</lon></station>
<station><name>Орша-Северная</name><esr>166808</esr><sign>10</sign><dep>30501</dep><x>806.35</x><y>229.55</y><angle>0</angle><x2>823.55</x2><y2>218.45</y2><angle2>0</angle2><lat>54.542348599999997</lat><lon>30.4457454</lon></station>
<station><name>Ивацевичи</name><esr>134205</esr><sign>10</sign><dep>30701</dep><x>236.85</x><y>458.6</y><angle>50</angle><x2>235.15</x2><y2>452.15</y2><angle2>-128</angle2><lat>52.709214500000002</lat><lon>25.3452606</lon></station>
<station><name>Коссово-Полесское</name><esr>134101</esr><sign>10</sign><dep>30701</dep><x>229.55</x><y>464.25</y><angle>50</angle><x2>231.5</x2><y2>455.15</y2><angle2>-128</angle2><lat>52.651398299999997</lat><lon>25.221750400000001</lon></station>
<station><name>Доманово</name><esr>134309</esr><sign>10</sign><dep>30701</dep><x>242.5</x><y>453.75</y><angle>50</angle><x2>242.5</x2><y2>446.35</y2><angle2>-128</angle2><lat>52.828172700000003</lat><lon>25.473193999999999</lon></station>
<station><name>Грицевец</name><esr>134506</esr><sign>10</sign><dep>30601</dep><x>271.5</x><y>432</y><angle>50</angle><x2>254.15</x2><y2>437.2</y2><angle2>-128</angle2><lat>53.040228499999998</lat><lon>25.863306099999999</lon></station>
<station><name>Лесная-стык</name><esr>134328</esr><sign>10</sign><dep>30701</dep><x>255.4</x><y>444.1</y><angle>50</angle><x2>251.7</x2><y2>438.95</y2><angle2>-128</angle2></station>
<station><name>Дрогичин</name><esr>132905</esr><sign>10</sign><dep>30701</dep><x>274.75</x><y>539.25</y><angle>115</angle><x2>259.25</x2><y2>529.65</y2><angle2>110</angle2><lat>52.182070899999999</lat><lon>25.053089799999999</lon></station>
<station><name>Лососно</name><esr>134703</esr><sign>10</sign><dep>30601</dep><x>104.55</x><y>319.9</y><angle>-160</angle><x2>95.05</x2><y2>301.95</y2><angle2>-160</angle2><lat>53.652266500000003</lat><lon>23.802313900000001</lon></station>
<station><name>Брузги (эксп.)</name><esr>134807</esr><sign>11</sign><dep>30601</dep><x>96.45</x><y>340.85</y><angle>-160</angle><x2>83.15</x2><y2>333.85</y2><angle2>-160</angle2></station>
<station><name>Скидель</name><esr>135405</esr><sign>10</sign><dep>30601</dep><x>151.3</x><y>309.4</y><angle>-75</angle><x2>133.9</x2><y2>294.35</y2><angle2>-75</angle2><lat>53.572021300000003</lat><lon>24.224189899999999</lon></station>
<station><name>Скрибовцы</name><esr>137504</esr><sign>10</sign><dep>30601</dep><x>233.65</x><y>296.55</y><angle>45</angle><x2>221.55</x2><y2>286</y2><angle2>65</angle2><lat>53.691783899999997</lat><lon>24.989211000000001</lon></station>
<station><name>Брест-Центральный (эксп.)</name><esr>130609</esr><sign>11</sign><dep>30701</dep><x>83.55</x><y>536.05</y><angle>148</angle><x2>101.15</x2><y2>528.6</y2><angle2>145</angle2></station>
<station><name>Брест-Центральный</name><esr>130007</esr><sign>11</sign><dep>30701</dep><x>118.25</x><y>536.85</y><angle>148</angle><x2>106.55</x2><y2>528.6</y2><angle2>145</angle2><lat>52.100318600000001</lat><lon>23.6807938</lon></station>
<station><name>Солы</name><esr>163208</esr><sign>10</sign><dep>30501</dep><x>388.15</x><y>217.9</y><angle>-90</angle><x2>373.45</x2><y2>203</y2><angle2>-90</angle2><lat>54.509832199999998</lat><lon>26.192107700000001</lon></station>
<station><name>Завадичи</name><esr>135320</esr><sign>10</sign><dep>30601</dep><x>127.95</x><y>301.35</y><angle>-75</angle><x2>119.8</x2><y2>289.75</y2><angle2>-75</angle2><lat>53.645160099999998</lat><lon>24.0548514</lon></station>
<station><name>Черлена</name><esr>135424</esr><sign>10</sign><dep>30601</dep><x>158.6</x><y>311</y><angle>-75</angle><x2>143.4</x2><y2>297.3</y2><angle2>-75</angle2><lat>53.496877099999999</lat><lon>24.3134807</lon></station>
<station><name>Свислочь</name><esr>135602</esr><sign>11</sign><dep>30601</dep><x>125.5</x><y>407.8</y><angle>20</angle><x2>113.55</x2><y2>399.65</y2><angle2>55</angle2><lat>53.015713900000002</lat><lon>24.0751034</lon></station>
<station><name>Андреевичи</name><esr>136249</esr><sign>11</sign><dep>30601</dep><x>148.9</x><y>391.7</y><angle>20</angle><x2>141.8</x2><y2>380.75</y2><angle2>55</angle2><lat>53.1114052</lat><lon>24.2998558</lon></station>
<station><name>Берестовица</name><esr>136200</esr><sign>11</sign><dep>30601</dep><x>99.7</x><y>377.15</y><angle>-70</angle><x2>91</x2><y2>368.45</y2><angle2>-75</angle2><lat>53.1161697</lat><lon>23.967789100000001</lon></station>
<station><name>Мосты</name><esr>137203</esr><sign>11</sign><dep>30601</dep><x>187.6</x><y>315.85</y><angle>45</angle><x2>180.1</x2><y2>303.9</y2><angle2>65</angle2><lat>53.428754699999999</lat><lon>24.542097900000002</lon></station>
<station><name>Малорита</name><esr>132604</esr><sign>10</sign><dep>30701</dep><x>158.6</x><y>603.8</y><angle>-40</angle><x2>151.95</x2><y2>605.5</y2><angle2>-35</angle2><lat>51.794308899999997</lat><lon>24.086238600000001</lon></station>
<station><name>Высоко-Литовск</name><esr>131705</esr><sign>11</sign><dep>30701</dep><x>104.55</x><y>452.95</y><angle>0</angle><x2>92.95</x2><y2>434.65</y2><angle2>0</angle2><lat>52.400614599999997</lat><lon>23.3814335</lon></station>
<station><name>Волковыск-Центральный</name><esr>136709</esr><sign>11</sign><dep>30601</dep><x>162.6</x><y>388.45</y><angle>-120</angle><x2>154.3</x2><y2>377.95</y2><angle2>-160</angle2><lat>53.1542575</lat><lon>24.4489573</lon></station>
<station><name>Полонка</name><esr>137101</esr><sign>10</sign><dep>30601</dep><x>240.05</x><y>415.05</y><angle>-60</angle><x2>233.65</x2><y2>406.55</y2><angle2>-74</angle2><lat>53.1207809</lat><lon>25.7283279</lon></station>
<station><name>Зельва</name><esr>136802</esr><sign>10</sign><dep>30601</dep><x>185.2</x><y>394.9</y><angle>-60</angle><x2>183.05</x2><y2>388.7</y2><angle2>-74</angle2><lat>53.162023099999999</lat><lon>24.798893199999998</lon></station>
<station><name>Озерница</name><esr>136906</esr><sign>10</sign><dep>30601</dep><x>201.35</x><y>400.5</y><angle>-60</angle><x2>197.05</x2><y2>393.5</y2><angle2>-74</angle2><lat>53.084002499999997</lat><lon>25.032357900000001</lon></station>
<station><name>Рожанка</name><esr>137400</esr><sign>10</sign><dep>30601</dep><x>211.05</x><y>304.55</y><angle>45</angle><x2>203.25</x2><y2>293.9</y2><angle2>65</angle2><lat>53.558809199999999</lat><lon>24.790484299999999</lon></station>
<station><name>Брузги</name><esr>135104</esr><sign>10</sign><dep>30601</dep><x>98.9</x><y>335.2</y><angle>-160</angle><x2>84.8</x2><y2>329.8</y2><angle2>-160</angle2><lat>53.555535499999998</lat><lon>23.6666414</lon></station>
<station><name>Степянка</name><esr>140403</esr><sign>10</sign><dep>30501</dep><x>559.45</x><y>320.7</y><angle>35</angle><x2>573.05</x2><y2>309.85</y2><angle2>-115</angle2><lat>53.914665999999997</lat><lon>27.6633137</lon></station>
<station><name>Смолевичи</name><esr>141001</esr><sign>10</sign><dep>30501</dep><x>604.65</x><y>299.75</y><angle>35</angle><x2>603.5</x2><y2>295.85</y2><angle2>-115</angle2><lat>54.019069600000002</lat><lon>28.0569791</lon></station>
<station><name>Минск-Пассажирский</name><esr>140210</esr><sign>10</sign><dep>30501</dep><x>515.15</x><y>327.15</y><angle>-30</angle><x2>517.65</x2><y2>314.8</y2><angle2>-30</angle2><lat>53.890737199999997</lat><lon>27.550737600000001</lon></station>
<station><name>Красное-Знамя</name><esr>141209</esr><sign>10</sign><dep>30501</dep><x>615.15</x><y>294.9</y><angle>35</angle><x2>618.7</x2><y2>289.1</y2><angle2>-115</angle2><lat>54.038555100000004</lat><lon>28.202209400000001</lon></station>
<station><name>Борисов</name><esr>141406</esr><sign>10</sign><dep>30501</dep><x>649.8</x><y>279.55</y><angle>35</angle><x2>652.2</x2><y2>273.7</y2><angle2>-115</angle2><lat>54.2206817</lat><lon>28.531169800000001</lon></station>
<station><name>Минойты</name><esr>137612</esr><sign>10</sign><dep>30601</dep><x>272.35</x><y>305.35</y><angle>-15</angle><x2>262.1</x2><y2>282.2</y2><angle2>-20</angle2><lat>53.791177099999999</lat><lon>25.362759</lon></station>
<station><name>Неман</name><esr>138121</esr><sign>10</sign><dep>30601</dep><x>279.6</x><y>322.3</y><angle>-15</angle><x2>269.25</x2><y2>300.2</y2><angle2>-20</angle2><lat>53.671294400000001</lat><lon>25.433014499999999</lon></station>
<station><name>Ждановичи</name><esr>143651</esr><sign>10</sign><dep>30501</dep><x>503.05</x><y>309.35</y><angle>-30</angle><x2>501.15</x2><y2>290.6</y2><angle2>-30</angle2><lat>53.947488999999997</lat><lon>27.426005499999999</lon></station>
<station><name>Мицкевичи</name><esr>138314</esr><sign>10</sign><dep>30601</dep><x>291.7</x><y>354.6</y><angle>-15</angle><x2>283.55</x2><y2>336.45</y2><angle2>-20</angle2><lat>53.2975663</lat><lon>25.751404999999998</lon></station>
<station><name>Выгода</name><esr>138225</esr><sign>10</sign><dep>30601</dep><x>288.45</x><y>344.1</y><angle>-15</angle><x2>278.1</x2><y2>323</y2><angle2>-20</angle2><lat>53.351324499999997</lat><lon>25.5999987</lon></station>
<station><name>Барановичи-Центральные</name><esr>138507</esr><sign>11</sign><dep>30601</dep><x>287.65</x><y>419.05</y><angle>11</angle><x2>287.65</x2><y2>419.05</y2><angle2>11</angle2><lat>53.132159600000001</lat><lon>25.993572</lon></station>
<station><name>Столбцы</name><esr>138704</esr><sign>10</sign><dep>30601</dep><x>388.5</x><y>384.45</y><angle>50</angle><x2>387.1</x2><y2>379.25</y2><angle2>-105</angle2><lat>53.482829600000002</lat><lon>26.755935300000001</lon></station>
<station><name>Койданово</name><esr>144508</esr><sign>10</sign><dep>30501</dep><x>443.35</x><y>368.3</y><angle>50</angle><x2>439.2</x2><y2>363.8</y2><angle2>-105</angle2><lat>53.682547</lat><lon>27.158990200000002</lon></station>
<station><name>Видибор</name><esr>139302</esr><sign>10</sign><dep>30601</dep><x>440.15</x><y>609.45</y><angle>154</angle><x2>437.15</x2><y2>599.55</y2><angle2>145</angle2><lat>51.988792599999996</lat><lon>26.7702183</lon></station>
<station><name>Муляровка</name><esr>153600</esr><sign>10</sign><dep>30801</dep><x>582.05</x><y>608.65</y><angle>99</angle><x2>579.95</x2><y2>604.35</y2><angle2>99</angle2><lat>52.207667499999999</lat><lon>28.563804099999999</lon></station>
<station><name>Клецк</name><esr>139001</esr><sign>10</sign><dep>30601</dep><x>412.15</x><y>481.9</y><angle>-68</angle><x2>413.6</x2><y2>471.45</y2><angle2>90</angle2><lat>53.076049300000001</lat><lon>26.661964699999999</lon></station>
<station><name>Поречье</name><esr>134972</esr><sign>11</sign><dep>30601</dep><x>122.3</x><y>266.65</y><angle>160</angle><x2>107.8</x2><y2>248.65</y2><angle2>15.736</angle2><lat>53.885794300000001</lat><lon>24.134201900000001</lon></station>
<station><name>Мордичи</name><esr>138403</esr><sign>10</sign><dep>30601</dep><x>294.9</x><y>361.85</y><angle>-15</angle><x2>285.25</x2><y2>341.05</y2><angle2>-20</angle2><lat>53.268147200000001</lat><lon>25.817345700000001</lon></station>
<station><name>Припять</name><esr>139711</esr><sign>10</sign><dep>30601</dep><x>435.3</x><y>601.4</y><angle>154</angle><x2>434.6</x2><y2>595.7</y2><angle2>145</angle2><lat>52.125125099999998</lat><lon>26.789025500000001</lon></station>
<station><name>Ганцевичи</name><esr>139603</esr><sign>10</sign><dep>30601</dep><x>384.45</x><y>528</y><angle>0</angle><x2>379.65</x2><y2>513.9</y2><angle2>145</angle2><lat>52.758574699999997</lat><lon>26.434954099999999</lon></station>
<station><name>Рейтанов</name><esr>139800</esr><sign>10</sign><dep>30601</dep><x>373.15</x><y>511.05</y><angle>0</angle><x2>368.7</x2><y2>497.75</y2><angle2>145</angle2><lat>52.979308400000001</lat><lon>26.307452699999999</lon></station>
<station><name>Рось</name><esr>137307</esr><sign>10</sign><dep>30601</dep><x>175.5</x><y>356.2</y><angle>-163</angle><x2>165.7</x2><y2>347.5</y2><angle2>-160</angle2><lat>53.293613100000002</lat><lon>24.4239353</lon></station>
<station><name>Верейцы</name><esr>146109</esr><sign>10</sign><dep>30901</dep><x>617.55</x><y>435.2</y><angle>155</angle><x2>623.7</x2><y2>424.7</y2><angle2>135</angle2><lat>53.338867899999997</lat><lon>28.5188478</lon></station>
<station><name>Городец</name><esr>132801</esr><sign>10</sign><dep>30701</dep><x>256.2</x><y>533.55</y><angle>115</angle><x2>235.7</x2><y2>522.85</y2><angle2>110</angle2><lat>52.196019399999997</lat><lon>24.691959799999999</lon></station>
<station><name>Круговец</name><esr>150903</esr><sign>10</sign><dep>30801</dep><x>958</x><y>690.15</y><angle>-128</angle><x2>975.45</x2><y2>689</y2><angle2>-117.022</angle2><lat>52.170630799999998</lat><lon>31.689214199999999</lon></station>
<station><name>Гатово</name><esr>145106</esr><sign>10</sign><dep>30501</dep><x>573.2</x><y>348.15</y><angle>35</angle><x2>577.85</x2><y2>335.55</y2><angle2>20.292</angle2><lat>53.784599999999998</lat><lon>27.641860000000001</lon></station>
<station><name>Новоельня</name><esr>138206</esr><sign>10</sign><dep>30601</dep><x>284.45</x><y>333.6</y><angle>-15</angle><x2>274.6</x2><y2>313.95</y2><angle2>-20</angle2><lat>53.463972499999997</lat><lon>25.586549900000001</lon></station>
<station><name>Городея</name><esr>138600</esr><sign>10</sign><dep>30601</dep><x>368.35</x><y>390.1</y><angle>50</angle><x2>367.85</x2><y2>384.75</y2><angle2>-105</angle2><lat>53.314950199999998</lat><lon>26.538005599999998</lon></station>
<station><name>Михановичи</name><esr>145002</esr><sign>10</sign><dep>30501</dep><x>562.7</x><y>378.8</y><angle>155</angle><x2>567.3</x2><y2>367.4</y2><angle2>135</angle2><lat>53.746130700000002</lat><lon>27.688113600000001</lon></station>
<station><name>Талька</name><esr>145454</esr><sign>10</sign><dep>30501</dep><x>607.05</x><y>423.9</y><angle>155</angle><x2>615.95</x2><y2>416.8</y2><angle2>135</angle2><lat>53.374140599999997</lat><lon>28.3413106</lon></station>
<station><name>Гродно</name><esr>135208</esr><sign>11</sign><dep>30601</dep><x>108.2</x><y>310.6</y><angle>-160</angle><x2>98.8</x2><y2>291.55</y2><angle2>-160</angle2><lat>53.686480400000001</lat><lon>23.8491526</lon></station>
<station><name>Шеметово</name><esr>141114</esr><sign>10</sign><dep>30501</dep><x>645.15</x><y>345.9</y><angle>0</angle><x2>611.7</x2><y2>309.3</y2><angle2>-26.201</angle2><lat>54.837569999999999</lat><lon>26.546320000000001</lon></station>
<station><name>Новосады</name><esr>141500</esr><sign>10</sign><dep>30501</dep><x>661.1</x><y>273.9</y><angle>35</angle><x2>665.05</x2><y2>263.25</y2><angle2>65</angle2><lat>54.250441799999997</lat><lon>28.698332399999998</lon></station>
<station><name>Бобр</name><esr>141800</esr><sign>10</sign><dep>30501</dep><x>694.2</x><y>259.4</y><angle>35</angle><x2>691.15</x2><y2>251.4</y2><angle2>65</angle2><lat>54.34104</lat><lon>29.269549999999999</lon></station>
<station><name>Славное</name><esr>141938</esr><sign>10</sign><dep>30501</dep><x>704.7</x><y>253.75</y><angle>35</angle><x2>700.25</x2><y2>247.05</y2><angle2>65</angle2><lat>52.33672</lat><lon>24.327590000000001</lon></station>
<station><name>Толочин</name><esr>142004</esr><sign>10</sign><dep>30501</dep><x>716</x><y>248.9</y><angle>35</angle><x2>713.65</x2><y2>241</y2><angle2>65</angle2><lat>54.402346999999999</lat><lon>29.753074999999999</lon></station>
<station><name>Приямино</name><esr>141603</esr><sign>10</sign><dep>30501</dep><x>671.6</x><y>269.05</y><angle>35</angle><x2>674.1</x2><y2>259.05</y2><angle2>65</angle2><lat>54.276494100000001</lat><lon>28.8373065</lon></station>
<station><name>Барановичи-Полесские</name><esr>138901</esr><sign>10</sign><dep>30601</dep><x>335.15</x><y>452.9</y><angle>0</angle><x2>335.35</x2><y2>448.05</y2><angle2>145</angle2><lat>53.129192400000001</lat><lon>26.042284299999999</lon></station>
<station><name>Тимковичи</name><esr>139105</esr><sign>10</sign><dep>30601</dep><x>450.15</x><y>481.9</y><angle>-68</angle><x2>433.05</x2><y2>471.4</y2><angle2>90</angle2><lat>53.086542999999999</lat><lon>27.032414899999999</lon></station>
<station><name>Молодечно</name><esr>162900</esr><sign>11</sign><dep>30501</dep><x>446.15</x><y>218.9</y><angle>-88</angle><x2>447.6</x2><y2>202.8</y2><angle2>-89.51</angle2><lat>54.316177000000003</lat><lon>26.838256999999999</lon></station>
<station><name>Озерище</name><esr>140704</esr><sign>10</sign><dep>30501</dep><x>567.55</x><y>317.45</y><angle>35</angle><x2>577.65</x2><y2>307.8</y2><angle2>-115</angle2><lat>53.932559300000001</lat><lon>27.716611400000001</lon></station>
<station><name>Уша</name><esr>142305</esr><sign>10</sign><dep>30501</dep><x>457.9</x><y>234.4</y><angle>-30</angle><x2>461</x2><y2>224.35</y2><angle2>-30</angle2><lat>54.252950400000003</lat><lon>27.066550500000002</lon></station>
<station><name>Дубравы</name><esr>143401</esr><sign>10</sign><dep>30501</dep><x>472.4</x><y>259.35</y><angle>-30</angle><x2>473.75</x2><y2>245.35</y2><angle2>-30</angle2><lat>54.107314500000001</lat><lon>27.1413802</lon></station>
<station><name>Лунинец</name><esr>139406</esr><sign>11</sign><dep>30601</dep><x>419.95</x><y>583.6</y><angle>-10</angle><x2>419.05</x2><y2>580.35</y2><angle2>-40</angle2><lat>52.244192099999999</lat><lon>26.806607499999998</lon></station>
<station><name>Русино</name><esr>138916</esr><sign>10</sign><dep>30601</dep><x>356.1</x><y>482.95</y><angle>175</angle><x2>353.3</x2><y2>474.5</y2><angle2>145</angle2><lat>53.086129900000003</lat><lon>26.095004200000002</lon></station>
<station><name>Фаниполь</name><esr>144601</esr><sign>10</sign><dep>30501</dep><x>460.25</x><y>363.4</y><angle>50</angle><x2>458.15</x2><y2>358.2</y2><angle2>-105</angle2><lat>53.744619</lat><lon>27.334874200000002</lon></station>
<station><name>Погорельцы</name><esr>138550</esr><sign>10</sign><dep>30601</dep><x>351.4</x><y>395.7</y><angle>50</angle><x2>354</x2><y2>389.05</y2><angle2>-105</angle2><lat>53.204448499999998</lat><lon>26.296327099999999</lon></station>
<station><name>Деревцы</name><esr>149222</esr><sign>10</sign><dep>30901</dep><x>611.1</x><y>454.55</y><angle>50</angle><x2>600.4</x2><y2>452.2</y2><angle2>75</angle2><lat>53.254890199999998</lat><lon>28.562125399999999</lon></station>
<station><name>Брест-Северный(эксп.)</name><esr>130505</esr><sign>11</sign><dep>30701</dep><x>81.95</x><y>515.9</y><angle>180</angle><x2>66.2</x2><y2>509.4</y2><angle2>-92.487</angle2></station>
<station><name>Минск-Южный</name><esr>140507</esr><sign>10</sign><dep>30501</dep><x>536.1</x><y>349.75</y><angle>155</angle><x2>534.7</x2><y2>337.4</y2><angle2>-36.55</angle2><lat>53.865535399999999</lat><lon>27.5606945</lon></station>
<station><name>Ипуть</name><esr>155771</esr><sign>10</sign><dep>30801</dep><x>910.4</x><y>626.4</y><angle>-25</angle><x2>925.9</x2><y2>621.45</y2><angle2>-30</angle2><lat>52.404087400000002</lat><lon>31.089995099999999</lon></station>
<station><name>Зябровка</name><esr>150674</esr><sign>10</sign><dep>30801</dep><x>898.3</x><y>699.8</y><angle>-30</angle><x2>909.25</x2><y2>692.3</y2><angle2>-30</angle2><lat>52.308094199999999</lat><lon>31.210343399999999</lon></station>
<station><name>Новобелицкая</name><esr>150208</esr><sign>11</sign><dep>30801</dep><x>882.15</x><y>674</y><angle>-30</angle><x2>886.65</x2><y2>654.6</y2><angle2>-30</angle2><lat>52.399928899999999</lat><lon>31.032681</lon></station>
<station><name>Жодино</name><esr>141302</esr><sign>10</sign><dep>30501</dep><x>630.45</x><y>288.45</y><angle>35</angle><x2>631.85</x2><y2>283.1</y2><angle2>-115</angle2><lat>54.102240100000003</lat><lon>28.340996000000001</lon></station>
<station><name>Колядичи</name><esr>144809</esr><sign>10</sign><dep>30501</dep><x>546.55</x><y>362.65</y><angle>155</angle><x2>551.2</x2><y2>351.8</y2><angle2>135</angle2><lat>53.808097199999999</lat><lon>27.579771399999998</lon></station>
<station><name>Асеевка (пп)</name><esr>144832</esr><sign>10</sign><dep>30501</dep><x>554.65</x><y>369.9</y><angle>155</angle><x2>559.35</x2><y2>359.25</y2><angle2>135</angle2><lat>53.768671699999999</lat><lon>27.653553299999999</lon></station>
<station><name>Руденск</name><esr>145303</esr><sign>10</sign><dep>30501</dep><x>578.05</x><y>394.1</y><angle>155</angle><x2>581.7</x2><y2>382.2</y2><angle2>135</angle2><lat>53.596761600000001</lat><lon>27.859679499999999</lon></station>
<station><name>Пуховичи</name><esr>145407</esr><sign>10</sign><dep>30501</dep><x>592.55</x><y>409.4</y><angle>155</angle><x2>598.9</x2><y2>399.65</y2><angle2>135</angle2><lat>53.509911899999999</lat><lon>28.142693600000001</lon></station>
<station><name>Воничи</name><esr>157207</esr><sign>10</sign><dep>30901</dep><x>703.9</x><y>406.95</y><angle>-105</angle><x2>692.45</x2><y2>407.2</y2><angle2>55</angle2><lat>53.599195899999998</lat><lon>29.4989144</lon></station>
<station><name>Осиповичи I</name><esr>146407</esr><sign>11</sign><dep>30901</dep><x>630.7</x><y>445.6</y><angle>50</angle><x2>644.4</x2><y2>444.95</y2><angle2>133</angle2><lat>53.299550799999999</lat><lon>28.6451463</lon></station>
<station><name>Крупки</name><esr>141707</esr><sign>10</sign><dep>30501</dep><x>682.1</x><y>263.4</y><angle>35</angle><x2>682.4</x2><y2>255.35</y2><angle2>65</angle2><lat>54.299594599999999</lat><lon>29.069707399999999</lon></station>
<station><name>Орша-Западная-стык</name><esr>166719</esr><sign>10</sign><dep>30501</dep><x>764.4</x><y>231.15</y><angle>165</angle><x2>785.9</x2><y2>238</y2><angle2>140.054</angle2></station>
<station><name>Ратмировичи</name><esr>147402</esr><sign>10</sign><dep>30901</dep><x>683.15</x><y>547.9</y><angle>180</angle><x2>687</x2><y2>543</y2><angle2>0</angle2><lat>52.775832700000002</lat><lon>28.957350399999999</lon></station>
<station><name>Верхутино</name><esr>149022</esr><sign>10</sign><dep>30901</dep><x>567.95</x><y>466.6</y><angle>50</angle><x2>562.7</x2><y2>461.2</y2><angle2>75</angle2><lat>52.967825500000004</lat><lon>28.052483299999999</lon></station>
<station><name>Красный Брод</name><esr>147602</esr><sign>10</sign><dep>30901</dep><x>683.15</x><y>514.9</y><angle>180</angle><x2>687.35</x2><y2>508.45</y2><angle2>0</angle2><lat>53.031656900000002</lat><lon>29.1682989</lon></station>
<station><name>Ратомка</name><esr>143632</esr><sign>10</sign><dep>30501</dep><x>498.2</x><y>300.55</y><angle>-30</angle><x2>496.7</x2><y2>283.05</y2><angle2>-30</angle2><lat>53.940873400000001</lat><lon>27.3475663</lon></station>
<station><name>Минск-Сортировочный</name><esr>140009</esr><sign>11</sign><dep>30501</dep><x>498.2</x><y>352.95</y><angle>-120</angle><x2>502</x2><y2>342.15</y2><angle2>-120</angle2><lat>53.880685499999998</lat><lon>27.5322125</lon></station>
<station><name>Калий I</name><esr>148208</esr><sign>10</sign><dep>30901</dep><x>521.15</x><y>545.9</y><angle>-178</angle><x2>524</x2><y2>540.9</y2><angle2>-180</angle2><lat>52.826550500000003</lat><lon>27.587456199999998</lon></station>
<station><name>Слуцк</name><esr>148602</esr><sign>10</sign><dep>30901</dep><x>518.15</x><y>481.9</y><angle>-68</angle><x2>520.2</x2><y2>474.9</y2><angle2>-90</angle2><lat>53.013979800000001</lat><lon>27.5228833</lon></station>
<station><name>Солигорск</name><esr>148227</esr><sign>10</sign><dep>30901</dep><x>517.15</x><y>554.9</y><angle>0</angle><x2>520.05</x2><y2>550.4</y2><angle2>0</angle2><lat>52.793159799999998</lat><lon>27.545149800000001</lon></station>
<station><name>Помыслище</name><esr>144635</esr><sign>10</sign><dep>30501</dep><x>475.6</x><y>358.6</y><angle>50</angle><x2>474.15</x2><y2>353.4</y2><angle2>-107.984</angle2><lat>53.8171666</lat><lon>27.455639099999999</lon></station>
<station><name>Осиповичи III</name><esr>146433</esr><sign>10</sign><dep>30901</dep><x>640.35</x><y>459.25</y><angle>-35</angle><x2>651.1</x2><y2>451.25</y2><angle2>133</angle2><lat>53.2823554</lat><lon>28.713265799999999</lon></station>
<station><name>Новодворцы</name><esr>148617</esr><sign>10</sign><dep>30901</dep><x>530.45</x><y>474.75</y><angle>50</angle><x2>529.3</x2><y2>469.2</y2><angle2>75</angle2><lat>52.9973709</lat><lon>27.587438299999999</lon></station>
<station><name>Некраши</name><esr>148621</esr><sign>10</sign><dep>30901</dep><x>540.9</x><y>472.3</y><angle>50</angle><x2>538.85</x2><y2>466.9</y2><angle2>75</angle2><lat>52.983583600000003</lat><lon>27.695198099999999</lon></station>
<station><name>Фаличи</name><esr>149126</esr><sign>10</sign><dep>30901</dep><x>590.95</x><y>461.75</y><angle>50</angle><x2>581.5</x2><y2>456.75</y2><angle2>75</angle2><lat>53.120453699999999</lat><lon>28.3261544</lon></station>
<station><name>Уречье</name><esr>149003</esr><sign>10</sign><dep>30901</dep><x>553.85</x><y>469.85</y><angle>50</angle><x2>552.85</x2><y2>463.55</y2><angle2>75</angle2><lat>52.952230299999997</lat><lon>27.9085675</lon></station>
<station><name>Старые Дороги</name><esr>149107</esr><sign>10</sign><dep>30901</dep><x>579.65</x><y>463.45</y><angle>50</angle><x2>572.05</x2><y2>459.05</y2><angle2>75</angle2><lat>53.040785800000002</lat><lon>28.2695103</lon></station>
<station><name>Гомель-Нечетный</name><esr>150034</esr><sign>10</sign><dep>30801</dep><x>857.2</x><y>633.65</y><angle>-30</angle><x2>871.8</x2><y2>630.25</y2><angle2>-30</angle2><lat>52.449850300000001</lat><lon>30.9885266</lon></station>
<station><name>Лазурная</name><esr>155409</esr><sign>10</sign><dep>30801</dep><x>836.2</x><y>597.3</y><angle>-30</angle><x2>850.7</x2><y2>595</y2><angle2>-32.816</angle2><lat>52.572104899999999</lat><lon>30.879512099999999</lon></station>
<station><name>Речица</name><esr>154800</esr><sign>10</sign><dep>30801</dep><x>794.15</x><y>643.9</y><angle>95</angle><x2>796.3</x2><y2>644.3</y2><angle2>-80</angle2><lat>52.371751799999998</lat><lon>30.386023900000001</lon></station>
<station><name>Голевицы</name><esr>153850</esr><sign>10</sign><dep>30801</dep><x>718.15</x><y>633.9</y><angle>-65</angle><x2>725.65</x2><y2>628.45</y2><angle2>100</angle2><lat>52.161178100000001</lat><lon>29.493232299999999</lon></station>
<station><name>Закопытье (эксп.)</name><esr>150405</esr><sign>11</sign><dep>30801</dep><x>949.15</x><y>633.9</y><angle>27</angle><x2>967.55</x2><y2>631.95</y2><angle2>65</angle2></station>
<station><name>Елизово</name><esr>157003</esr><sign>10</sign><dep>30901</dep><x>664.35</x><y>434.4</y><angle>-105</angle><x2>669</x2><y2>423.55</y2><angle2>55</angle2><lat>53.400381699999997</lat><lon>28.991510699999999</lon></station>
<station><name>Гомель</name><esr>150000</esr><sign>11</sign><dep>30801</dep><x>868.45</x><y>651.4</y><angle>-30</angle><x2>883.05</x2><y2>648.15</y2><angle2>-30</angle2><lat>52.431186699999998</lat><lon>30.9906434</lon></station>
<station><name>Уть</name><esr>150265</esr><sign>10</sign><dep>30801</dep><x>878.95</x><y>691.75</y><angle>-117</angle><x2>891.5</x2><y2>686.65</y2><angle2>65</angle2><lat>52.307049499999998</lat><lon>31.0784822</lon></station>
<station><name>Закопытье</name><esr>150513</esr><sign>11</sign><dep>30801</dep><x>944.15</x><y>635.9</y><angle>27</angle><x2>964.2</x2><y2>632.95</y2><angle2>65</angle2><lat>52.4334214</lat><lon>31.477853499999998</lon></station>
<station><name>Березки</name><esr>150212</esr><sign>10</sign><dep>30801</dep><x>922.15</x><y>641.9</y><angle>27</angle><x2>941.2</x2><y2>639.7</y2><angle2>65</angle2><lat>52.391725100000002</lat><lon>31.100665800000002</lon></station>
<station><name>Закопытье-стык</name><esr>150528</esr><sign>10</sign><dep>30801</dep><x>954.1</x><y>632.85</y><angle>27</angle><x2>970.85</x2><y2>630.85</y2><angle2>65</angle2></station>
<station><name>Тереховка</name><esr>150706</esr><sign>11</sign><dep>30801</dep><x>911.2</x><y>715.15</y><angle>155</angle><x2>927.25</x2><y2>714.25</y2><angle2>150</angle2><lat>52.209896700000002</lat><lon>31.417694000000001</lon></station>
<station><name>Тереховка (эксп.)</name><esr>150805</esr><sign>11</sign><dep>30801</dep><x>914.45</x><y>720.8</y><angle>155</angle><x2>929.15</x2><y2>717.55</y2><angle2>150</angle2></station>
<station><name>Сож</name><esr>155714</esr><sign>10</sign><dep>30801</dep><x>892.65</x><y>594.95</y><angle>-25</angle><x2>907.75</x2><y2>591.55</y2><angle2>-30</angle2><lat>52.500347699999999</lat><lon>30.980749100000001</lon></station>
<station><name>Терюха (эксп.)</name><esr>151003</esr><sign>11</sign><dep>30801</dep><x>857.95</x><y>700.6</y><angle>-117</angle><x2>874.95</x2><y2>694</y2><angle2>65</angle2></station>
<station><name>Словечно</name><esr>151130</esr><sign>10</sign><dep>30801</dep><x>663.15</x><y>679.9</y><angle>0</angle><x2>674.6</x2><y2>686.1</y2><angle2>180</angle2><lat>51.631618099999997</lat><lon>29.066947200000001</lon></station>
<station><name>Козенки</name><esr>151605</esr><sign>10</sign><dep>30801</dep><x>663.15</x><y>646.9</y><angle>0</angle><x2>674.45</x2><y2>647.4</y2><angle2>180</angle2><lat>52.031088699999998</lat><lon>29.181447899999998</lon></station>
<station><name>Словечно (эксп.)</name><esr>151200</esr><sign>11</sign><dep>30801</dep><x>663.15</x><y>685.9</y><angle>0</angle><x2>674.6</x2><y2>690.3</y2><angle2>180</angle2></station>
<station><name>Мирадино</name><esr>146927</esr><sign>10</sign><dep>30901</dep><x>662.7</x><y>480.35</y><angle>-35</angle><x2>683.15</x2><y2>480.9</y2><angle2>133</angle2><lat>53.176527900000004</lat><lon>29.067677100000001</lon></station>
<station><name>Лапичи</name><esr>146221</esr><sign>10</sign><dep>30901</dep><x>628.05</x><y>406.95</y><angle>-180</angle><x2>629.7</x2><y2>393.35</y2><angle2>0.289</angle2><lat>53.427948600000001</lat><lon>28.487191800000002</lon></station>
<station><name>Жлобин-Западный</name><esr>155038</esr><sign>10</sign><dep>30801</dep><x>745.15</x><y>497.9</y><angle>-90</angle><x2>756.1</x2><y2>491.1</y2><angle2>-90</angle2><lat>52.8953135</lat><lon>29.958371100000001</lon></station>
<station><name>Телуша</name><esr>147807</esr><sign>10</sign><dep>30901</dep><x>716.15</x><y>497.9</y><angle>-90</angle><x2>719.95</x2><y2>491.5</y2><angle2>-90</angle2><lat>53.042375300000003</lat><lon>29.515779500000001</lon></station>
<station><name>Красный Берег</name><esr>148000</esr><sign>10</sign><dep>30801</dep><x>739.15</x><y>497.9</y><angle>-90</angle><x2>742.05</x2><y2>491.3</y2><angle2>-90</angle2><lat>54.664709999999999</lat><lon>26.830760000000001</lon></station>
<station><name>Житковичи-стык</name><esr>152171</esr><sign>10</sign><dep>30801</dep><x>542.55</x><y>603</y><angle>99</angle><x2>543.25</x2><y2>598.35</y2><angle2>99</angle2></station>
<station><name>Коржевка</name><esr>153615</esr><sign>10</sign><dep>30801</dep><x>590.15</x><y>611.05</y><angle>99</angle><x2>584.8</x2><y2>605.15</y2><angle2>99</angle2><lat>52.205399399999997</lat><lon>28.647518099999999</lon></station>
<station><name>Клинск</name><esr>153742</esr><sign>10</sign><dep>30801</dep><x>635.3</x><y>617.5</y><angle>99</angle><x2>613.6</x2><y2>609.8</y2><angle2>99</angle2><lat>52.146232499999996</lat><lon>29.1473266</lon></station>
<station><name>Птичь</name><esr>153761</esr><sign>10</sign><dep>30801</dep><x>602.25</x><y>612.7</y><angle>99</angle><x2>594.4</x2><y2>606.65</y2><angle2>99</angle2><lat>52.185642199999997</lat><lon>28.818340299999999</lon></station>
<station><name>Хойники</name><esr>154507</esr><sign>10</sign><dep>30801</dep><x>737.15</x><y>675.9</y><angle>0</angle><x2>748.85</x2><y2>673.5</y2><angle2>0</angle2><lat>51.917991899999997</lat><lon>30.006211499999999</lon></station>
<station><name>Нахов</name><esr>153884</esr><sign>10</sign><dep>30801</dep><x>728.9</x><y>636.1</y><angle>-65</angle><x2>737.95</x2><y2>630.6</y2><angle2>100</angle2><lat>52.2229332</lat><lon>29.673486</lon></station>
<station><name>Бабичи</name><esr>154425</esr><sign>10</sign><dep>30801</dep><x>756.3</x><y>638.5</y><angle>95</angle><x2>762</x2><y2>638.8</y2><angle2>-80</angle2><lat>52.291216300000002</lat><lon>30.000731999999999</lon></station>
<station><name>Останковичи</name><esr>154143</esr><sign>10</sign><dep>30801</dep><x>752.3</x><y>576.4</y><angle>-160</angle><x2>763.55</x2><y2>561.9</y2><angle2>32</angle2><lat>52.4685141</lat><lon>29.540961100000001</lon></station>
<station><name>Светлогорск-на-Березине</name><esr>154209</esr><sign>10</sign><dep>30801</dep><x>761.15</x><y>561.85</y><angle>-160</angle><x2>771.3</x2><y2>549.9</y2><angle2>32</angle2><lat>52.631015400000003</lat><lon>29.7152247</lon></station>
<station><name>Ящицы</name><esr>154228</esr><sign>10</sign><dep>30801</dep><x>767.6</x><y>552.2</y><angle>-160</angle><x2>776.65</x2><y2>541.95</y2><angle2>32</angle2><lat>52.723358099999999</lat><lon>29.818331300000001</lon></station>
<station><name>Холодники</name><esr>154124</esr><sign>10</sign><dep>30801</dep><x>746.65</x><y>583.65</y><angle>-160</angle><x2>758.05</x2><y2>570.25</y2><angle2>32</angle2><lat>52.363108599999997</lat><lon>29.471336999999998</lon></station>
<station><name>Жлобин-Подольский</name><esr>154270</esr><sign>10</sign><dep>30801</dep><x>780.5</x><y>533.65</y><angle>-160</angle><x2>791.45</x2><y2>527.4</y2><angle2>-145.576</angle2><lat>52.865440499999998</lat><lon>30.025973199999999</lon></station>
<station><name>Мормаль</name><esr>154232</esr><sign>10</sign><dep>30801</dep><x>773.25</x><y>544.1</y><angle>-160</angle><x2>779.7</x2><y2>537.55</y2><angle2>32</angle2><lat>52.781242800000001</lat><lon>29.9012472</lon></station>
<station><name>Березина</name><esr>147703</esr><sign>10</sign><dep>30901</dep><x>690.15</x><y>497.9</y><angle>-90</angle><x2>696.1</x2><y2>491.55</y2><angle2>-90</angle2><lat>53.130770499999997</lat><lon>29.249878800000001</lon></station>
<station><name>Василевичи</name><esr>154406</esr><sign>10</sign><dep>30801</dep><x>739.15</x><y>638.9</y><angle>-65</angle><x2>749.3</x2><y2>636.7</y2><angle2>-80</angle2><lat>52.255236400000001</lat><lon>29.8275504</lon></station>
<station><name>Демехи</name><esr>154459</esr><sign>10</sign><dep>30801</dep><x>776.55</x><y>640.9</y><angle>95</angle><x2>781.05</x2><y2>641.7</y2><angle2>-80</angle2><lat>52.334423399999999</lat><lon>30.202281500000002</lon></station>
<station><name>Ребуса</name><esr>154711</esr><sign>10</sign><dep>30801</dep><x>786.95</x><y>642.55</y><angle>95</angle><x2>791.35</x2><y2>643.45</y2><angle2>-80</angle2><lat>52.342411200000001</lat><lon>30.306649400000001</lon></station>
<station><name>Лиски</name><esr>154430</esr><sign>10</sign><dep>30801</dep><x>764.4</x><y>640.1</y><angle>95</angle><x2>766.9</x2><y2>639.5</y2><angle2>-80</angle2><lat>52.101970000000001</lat><lon>24.234210000000001</lon></station>
<station><name>Прибор</name><esr>154872</esr><sign>10</sign><dep>30801</dep><x>822.15</x><y>648.9</y><angle>95</angle><x2>829.3</x2><y2>645.1</y2><angle2>100</angle2><lat>52.399912200000003</lat><lon>30.757884099999998</lon></station>
<station><name>Центролит</name><esr>154904</esr><sign>10</sign><dep>30801</dep><x>831.15</x><y>649.9</y><angle>95</angle><x2>845.35</x2><y2>647.85</y2><angle2>100</angle2><lat>52.430214599999999</lat><lon>30.9036784</lon></station>
<station><name>Шабаны</name><esr>145201</esr><sign>10</sign><dep>30501</dep><x>584.5</x><y>324.75</y><angle>32</angle><x2>588.45</x2><y2>313.4</y2><angle2>20.719</angle2><lat>53.92897</lat><lon>23.802309999999999</lon></station>
<station><name>Юшки</name><esr>154016</esr><sign>10</sign><dep>30801</dep><x>737.1</x><y>598.3</y><angle>-160</angle><x2>749.5</x2><y2>582.85</y2><angle2>32</angle2><lat>52.214737100000001</lat><lon>29.3854562</lon></station>
<station><name>Вирский</name><esr>155042</esr><sign>10</sign><dep>30801</dep><x>790.65</x><y>521.9</y><angle>-30</angle><x2>801.2</x2><y2>513.1</y2><angle2>-30</angle2><lat>52.882588599999998</lat><lon>30.088296400000001</lon></station>
<station><name>Ельск</name><esr>151304</esr><sign>10</sign><dep>30801</dep><x>663.15</x><y>665.9</y><angle>0</angle><x2>674.45</x2><y2>667.1</y2><angle2>180</angle2><lat>51.8212574</lat><lon>29.153604099999999</lon></station>
<station><name>Хальч</name><esr>155061</esr><sign>10</sign><dep>30801</dep><x>798.25</x><y>532.8</y><angle>-30</angle><x2>810.1</x2><y2>527.7</y2><angle2>-30</angle2><lat>52.853929999999998</lat><lon>30.19567</lon></station>
<station><name>Буда-Кошелевская</name><esr>155201</esr><sign>10</sign><dep>30801</dep><x>812.8</x><y>557.85</y><angle>-30</angle><x2>828.1</x2><y2>557.7</y2><angle2>-30</angle2><lat>52.712726199999999</lat><lon>30.567681700000001</lon></station>
<station><name>Уза</name><esr>155305</esr><sign>10</sign><dep>30801</dep><x>828.1</x><y>584.4</y><angle>-30</angle><x2>845.9</x2><y2>586.7</y2><angle2>-30</angle2><lat>52.598190000000002</lat><lon>30.8164181</lon></station>
<station><name>Костюковка</name><esr>155502</esr><sign>10</sign><dep>30801</dep><x>841.85</x><y>605.4</y><angle>-30</angle><x2>854.4</x2><y2>601.1</y2><angle2>-31.58</angle2><lat>52.53969</lat><lon>30.9113726</lon></station>
<station><name>Светоч (рзд)</name><esr>150024</esr><sign>10</sign><dep>30801</dep><x>851.5</x><y>621.55</y><angle>-30</angle><x2>864.2</x2><y2>617.35</y2><angle2>-41.392</angle2><lat>52.489726099999999</lat><lon>30.967991000000001</lon></station>
<station><name>Калинковичи</name><esr>153808</esr><sign>11</sign><dep>30801</dep><x>662.15</x><y>623.9</y><angle>-28</angle><x2>670.1</x2><y2>623.7</y2><angle2>-90</angle2><lat>52.139253400000001</lat><lon>29.3126599</lon></station>
<station><name>Микашевичи</name><esr>152106</esr><sign>10</sign><dep>30601</dep><x>507.1</x><y>597.35</y><angle>99</angle><x2>511.65</x2><y2>593.25</y2><angle2>99</angle2><lat>52.215103300000003</lat><lon>27.473671100000001</lon></station>
<station><name>Ларищево</name><esr>150227</esr><sign>10</sign><dep>30801</dep><x>931.15</x><y>639.9</y><angle>27</angle><x2>950.45</x2><y2>637.05</y2><angle2>65</angle2><lat>52.3892028</lat><lon>31.1681472</lon></station>
<station><name>Барбаров</name><esr>151408</esr><sign>10</sign><dep>30801</dep><x>686.15</x><y>652.9</y><angle>0</angle><x2>691.7</x2><y2>653.55</y2><angle2>-90</angle2><lat>51.900959999999998</lat><lon>29.273330000000001</lon></station>
<station><name>Рогачев</name><esr>155907</esr><sign>10</sign><dep>30801</dep><x>756.15</x><y>445.9</y><angle>0</angle><x2>766.65</x2><y2>432.3</y2><angle2>0</angle2><lat>53.093495300000001</lat><lon>30.051001800000002</lon></station>
<station><name>Сверково</name><esr>155803</esr><sign>10</sign><dep>30801</dep><x>756.15</x><y>450.9</y><angle>0</angle><x2>766.65</x2><y2>438.35</y2><angle2>0</angle2><lat>53.0505347</lat><lon>30.007613500000001</lon></station>
<station><name>Барсуки</name><esr>156134</esr><sign>10</sign><dep>30901</dep><x>756.15</x><y>400.9</y><angle>0</angle><x2>766.35</x2><y2>386.15</y2><angle2>0</angle2><lat>53.661375100000001</lat><lon>30.2612089</lon></station>
<station><name>Дашковка</name><esr>156242</esr><sign>10</sign><dep>30901</dep><x>756.15</x><y>390.9</y><angle>0</angle><x2>766.25</x2><y2>371</y2><angle2>0</angle2><lat>53.747165099999997</lat><lon>30.240913200000001</lon></station>
<station><name>Черноземовка</name><esr>156308</esr><sign>10</sign><dep>30901</dep><x>756.15</x><y>384.9</y><angle>0</angle><x2>766.25</x2><y2>366.15</y2><angle2>0</angle2><lat>53.795557299999999</lat><lon>30.213070200000001</lon></station>
<station><name>Буйничи</name><esr>156401</esr><sign>10</sign><dep>30901</dep><x>756.15</x><y>378.9</y><angle>0</angle><x2>766.35</x2><y2>361.65</y2><angle2>0</angle2><lat>53.8679019</lat><lon>30.2482194</lon></station>
<station><name>Предзаводская</name><esr>159404</esr><sign>10</sign><dep>30901</dep><x>900.15</x><y>402.9</y><angle>90</angle><x2>915.9</x2><y2>397.2</y2><angle2>180</angle2></station>
<station><name>Рыжковичи</name><esr>156702</esr><sign>10</sign><dep>30901</dep><x>770.15</x><y>309.9</y><angle>0</angle><x2>781.2</x2><y2>289.15</y2><angle2>0</angle2><lat>54.157744000000001</lat><lon>30.292113100000002</lon></station>
<station><name>Шклов</name><esr>156806</esr><sign>10</sign><dep>30901</dep><x>770.15</x><y>299.9</y><angle>0</angle><x2>781.05</x2><y2>279.25</y2><angle2>0</angle2><lat>54.219390599999997</lat><lon>30.277377699999999</lon></station>
<station><name>Копысь</name><esr>156908</esr><sign>10</sign><dep>30901</dep><x>770.15</x><y>289.9</y><angle>0</angle><x2>781.05</x2><y2>270.45</y2><angle2>0</angle2><lat>54.315321400000002</lat><lon>30.270048599999999</lon></station>
<station><name>Прокшино</name><esr>156914</esr><sign>10</sign><dep>30901</dep><x>770.15</x><y>280.9</y><angle>0</angle><x2>781.05</x2><y2>262.2</y2><angle2>0</angle2><lat>54.375287900000004</lat><lon>30.289427700000001</lon></station>
<station><name>Червено</name><esr>166600</esr><sign>10</sign><dep>30501</dep><x>770.15</x><y>263.9</y><angle>0</angle><x2>781.05</x2><y2>252.6</y2><angle2>0</angle2><lat>54.445013600000003</lat><lon>30.321992600000002</lon></station>
<station><name>Несета</name><esr>157103</esr><sign>10</sign><dep>30901</dep><x>686.95</x><y>419.05</y><angle>-105</angle><x2>680.9</x2><y2>415.4</y2><angle2>55</angle2><lat>53.509405200000003</lat><lon>29.2417309</lon></station>
<station><name>Дараганово</name><esr>149234</esr><sign>10</sign><dep>30901</dep><x>601.4</x><y>458.6</y><angle>50</angle><x2>591.15</x2><y2>454.35</y2><angle2>75</angle2><lat>53.177329800000003</lat><lon>28.491237000000002</lon></station>
<station><name>Вендриж</name><esr>157423</esr><sign>10</sign><dep>30901</dep><x>731.3</x><y>388.45</y><angle>-105</angle><x2>729.1</x2><y2>382.1</y2><angle2>55</angle2><lat>53.803446800000003</lat><lon>30.0365672</lon></station>
<station><name>Голынец</name><esr>157508</esr><sign>10</sign><dep>30901</dep><x>742.6</x><y>380.4</y><angle>-105</angle><x2>737.2</x2><y2>376.45</y2><angle2>55</angle2><lat>53.848857199999998</lat><lon>30.1619952</lon></station>
<station><name>Могилев II</name><esr>156505</esr><sign>11</sign><dep>30901</dep><x>756.3</x><y>370.7</y><angle>-105</angle><x2>769.9</x2><y2>359.6</y2><angle2>-179.767</angle2><lat>53.912117799999997</lat><lon>30.307835699999998</lon></station>
<station><name>Заднепровская</name><esr>157809</esr><sign>10</sign><dep>30901</dep><x>798.15</x><y>381.9</y><angle>0</angle><x2>809.65</x2><y2>369.55</y2><angle2>0</angle2></station>
<station><name>Чаусы</name><esr>158002</esr><sign>10</sign><dep>30901</dep><x>845.15</x><y>368.9</y><angle>-50</angle><x2>853.3</x2><y2>359.4</y2><angle2>-90</angle2><lat>53.781142000000003</lat><lon>30.9282219</lon></station>
<station><name>Осовец</name><esr>158110</esr><sign>10</sign><dep>30901</dep><x>882.15</x><y>365.9</y><angle>90</angle><x2>872.65</x2><y2>359.45</y2><angle2>-90</angle2><lat>53.755382500000003</lat><lon>31.440797</lon></station>
<station><name>Реста</name><esr>157902</esr><sign>10</sign><dep>30901</dep><x>824.1</x><y>368.9</y><angle>-50</angle><x2>838.1</x2><y2>359.5</y2><angle2>-90</angle2><lat>53.8240683</lat><lon>30.689209900000002</lon></station>
<station><name>Белынковичи</name><esr>159005</esr><sign>10</sign><dep>30901</dep><x>916.85</x><y>423.1</y><angle>0</angle><x2>933.05</x2><y2>409.15</y2><angle2>0</angle2><lat>53.233246000000001</lat><lon>32.161320000000003</lon></station>
<station><name>Румино</name><esr>158708</esr><sign>10</sign><dep>30901</dep><x>815.15</x><y>269.9</y><angle>-11</angle><x2>820.9</x2><y2>249.4</y2><angle2>-40</angle2><lat>54.4398494</lat><lon>30.4609734</lon></station>
<station><name>Орша-Восточная</name><esr>166704</esr><sign>10</sign><dep>30501</dep><x>796.15</x><y>245.9</y><angle>0</angle><x2>808.65</x2><y2>231.7</y2><angle2>-0.331</angle2><lat>54.504479199999999</lat><lon>30.401455599999998</lon></station>
<station><name>Темный Лес</name><esr>158407</esr><sign>10</sign><dep>30901</dep><x>853.15</x><y>314.9</y><angle>-11</angle><x2>851.95</x2><y2>286.8</y2><angle2>-40</angle2><lat>54.097047799999999</lat><lon>31.242672299999999</lon></station>
<station><name>Городнянский (пп)</name><esr>166418</esr><sign>10</sign><dep>30501</dep><x>805.5</x><y>220.65</y><angle>-30</angle><x2>822.6</x2><y2>207.75</y2><angle2>-60.104</angle2><lat>54.547446600000001</lat><lon>30.420935400000001</lon></station>
<station><name>Шестеровка</name><esr>158905</esr><sign>10</sign><dep>30901</dep><x>936.2</x><y>369.9</y><angle>-90</angle><x2>951.25</x2><y2>359.4</y2><angle2>-90</angle2><lat>53.722425000000001</lat><lon>32.157117499999998</lon></station>
<station><name>Погодино</name><esr>158500</esr><sign>10</sign><dep>30901</dep><x>835.15</x><y>292.9</y><angle>-11</angle><x2>836.35</x2><y2>268</y2><angle2>-40</angle2><lat>54.264086399999997</lat><lon>30.989766899999999</lon></station>
<station><name>Шестеровка (эксп.)</name><esr>158604</esr><sign>11</sign><dep>30901</dep><x>941.85</x><y>370.7</y><angle>-90</angle><x2>955.55</x2><y2>359.45</y2><angle2>-90</angle2></station>
<station><name>Климовичи</name><esr>159202</esr><sign>10</sign><dep>30901</dep><x>916.85</x><y>388.45</y><angle>0</angle><x2>933.1</x2><y2>379.6</y2><angle2>0</angle2><lat>53.607992699999997</lat><lon>31.923918400000002</lon></station>
<station><name>Могилев I</name><esr>156609</esr><sign>10</sign><dep>30901</dep><x>770.15</x><y>334.9</y><angle>0</angle><x2>781.1</x2><y2>321.55</y2><angle2>0</angle2><lat>53.926266800000001</lat><lon>30.337602199999999</lon></station>
<station><name>Коммунары</name><esr>159109</esr><sign>10</sign><dep>30901</dep><x>916.85</x><y>411.8</y><angle>0</angle><x2>933.1</x2><y2>399.1</y2><angle2>0</angle2><lat>53.3781283</lat><lon>32.059639799999999</lon></station>
<station><name>Лужесно</name><esr>160318</esr><sign>10</sign><dep>31001</dep><x>769.15</x><y>105.9</y><angle>0</angle><x2>780.6</x2><y2>85.35</y2><angle2>0</angle2><lat>55.255331300000002</lat><lon>30.1123634</lon></station>
<station><name>Городище</name><esr>140901</esr><sign>10</sign><dep>30501</dep><x>590.95</x><y>306.2</y><angle>35</angle><x2>591.5</x2><y2>301.55</y2><angle2>-115</angle2><lat>53.986750399999998</lat><lon>27.846926499999999</lon></station>
<station><name>Баравуха</name><esr>162116</esr><sign>10</sign><dep>31001</dep><x>612.15</x><y>118.9</y><angle>-92</angle><x2>619.2</x2><y2>101.85</y2><angle2>-90</angle2><lat>55.584591400000001</lat><lon>28.596435899999999</lon></station>
<station><name>Старое Село</name><esr>160040</esr><sign>10</sign><dep>31001</dep><x>745</x><y>119</y><angle>-90</angle><x2>747.1</x2><y2>101.3</y2><angle2>-90</angle2><lat>55.227870699999997</lat><lon>29.884856500000001</lon></station>
<station><name>Фомино (рзд)</name><esr>165311</esr><sign>10</sign><dep>31001</dep><x>683.7</x><y>119</y><angle>-90</angle><x2>693.6</x2><y2>101.55</y2><angle2>-90</angle2><lat>55.454971499999999</lat><lon>28.929141300000001</lon></station>
<station><name>Залучье</name><esr>160337</esr><sign>10</sign><dep>31001</dep><x>769.15</x><y>93.9</y><angle>0</angle><x2>780.6</x2><y2>70.95</y2><angle2>0</angle2><lat>55.408204300000001</lat><lon>30.059538100000001</lon></station>
<station><name>Прудок</name><esr>160708</esr><sign>10</sign><dep>31001</dep><x>769.15</x><y>81.9</y><angle>0</angle><x2>780.6</x2><y2>61.3</y2><angle2>0</angle2><lat>55.5034761</lat><lon>29.964166500000001</lon></station>
<station><name>Гудогай (эксп.)</name><esr>164107</esr><sign>11</sign><dep>30501</dep><x>364.15</x><y>217.9</y><angle>-92</angle><x2>355.75</x2><y2>203.1</y2><angle2>-92</angle2></station>
<station><name>Росляки</name><esr>160712</esr><sign>10</sign><dep>31001</dep><x>769.15</x><y>75.9</y><angle>0</angle><x2>780.65</x2><y2>56.05</y2><angle2>0</angle2><lat>55.585083400000002</lat><lon>29.940138099999999</lon></station>
<station><name>Олехновичи</name><esr>142409</esr><sign>10</sign><dep>30501</dep><x>466.75</x><y>248.9</y><angle>-30</angle><x2>468.5</x2><y2>237.1</y2><angle2>-30</angle2><lat>54.149425700000002</lat><lon>27.099623300000001</lon></station>
<station><name>Бычиха</name><esr>166210</esr><sign>10</sign><dep>31001</dep><x>769.15</x><y>69.9</y><angle>0</angle><x2>780.7</x2><y2>51.7</y2><angle2>0</angle2><lat>55.676172000000001</lat><lon>29.977855399999999</lon></station>
<station><name>Езерище</name><esr>160801</esr><sign>10</sign><dep>31001</dep><x>769.15</x><y>55.9</y><angle>0</angle><x2>780.7</x2><y2>36.6</y2><angle2>0</angle2><lat>55.841142699999999</lat><lon>29.974274300000001</lon></station>
<station><name>Горяны</name><esr>161128</esr><sign>10</sign><dep>31001</dep><x>690.95</x><y>119</y><angle>-90</angle><x2>698.6</x2><y2>101.45</y2><angle2>-90</angle2><lat>55.424973399999999</lat><lon>29.0341646</lon></station>
<station><name>Ловша</name><esr>160910</esr><sign>10</sign><dep>31001</dep><x>716</x><y>119</y><angle>-90</angle><x2>718.25</x2><y2>101.45</y2><angle2>-90</angle2><lat>55.317225200000003</lat><lon>29.449287999999999</lon></station>
<station><name>Езерище-стык</name><esr>160816</esr><sign>10</sign><dep>31001</dep><x>769.2</x><y>48.3</y><angle>0</angle><x2>780.65</x2><y2>30.05</y2><angle2>0</angle2></station>
<station><name>Сосница</name><esr>161221</esr><sign>10</sign><dep>31001</dep><x>675.65</x><y>119</y><angle>-90</angle><x2>687.05</x2><y2>101.7</y2><angle2>-90</angle2><lat>55.480413400000003</lat><lon>28.831061800000001</lon></station>
<station><name>Бигосово</name><esr>161700</esr><sign>11</sign><dep>31001</dep><x>576.15</x><y>118.9</y><angle>-92</angle><x2>579.9</x2><y2>101.55</y2><angle2>-90</angle2><lat>55.835135999999999</lat><lon>27.739363000000001</lon></station>
<station><name>Оболь</name><esr>161109</esr><sign>10</sign><dep>31001</dep><x>706.3</x><y>119</y><angle>-90</angle><x2>708.25</x2><y2>101.4</y2><angle2>-90</angle2><lat>55.363595500000002</lat><lon>29.274820600000002</lon></station>
<station><name>Глубокое</name><esr>164906</esr><sign>10</sign><dep>31001</dep><x>522.15</x><y>165.9</y><angle>-90</angle><x2>519.2</x2><y2>149.7</y2><angle2>-90</angle2><lat>55.1329347</lat><lon>27.671530300000001</lon></station>
<station><name>Белоозерск</name><esr>133804</esr><sign>10</sign><dep>30701</dep><x>259.4</x><y>507.8</y><angle>0</angle><x2>239.3</x2><y2>473.65</y2><angle2>-40.068</angle2><lat>52.466994999999997</lat><lon>25.186944</lon></station>
<station><name>Борковичи</name><esr>161908</esr><sign>10</sign><dep>31001</dep><x>598.15</x><y>118.9</y><angle>-92</angle><x2>604.3</x2><y2>101.7</y2><angle2>-90</angle2><lat>55.670242500000001</lat><lon>28.326205099999999</lon></station>
<station><name>Верхнедвинск</name><esr>161804</esr><sign>10</sign><dep>31001</dep><x>583.15</x><y>118.9</y><angle>-92</angle><x2>589.8</x2><y2>101.65</y2><angle2>-90</angle2><lat>55.816980000000001</lat><lon>27.940380000000001</lon></station>
<station><name>Алеща (эксп.)</name><esr>161202</esr><sign>11</sign><dep>31001</dep><x>639.15</x><y>64.9</y><angle>0</angle><x2>645.4</x2><y2>43.05</y2><angle2>0</angle2></station>
<station><name>Бигосово (эксп.)</name><esr>161401</esr><sign>11</sign><dep>31001</dep><x>571.15</x><y>118.9</y><angle>-92</angle><x2>576</x2><y2>101.55</y2><angle2>-90</angle2></station>
<station><name>Ропнянская</name><esr>162211</esr><sign>10</sign><dep>31001</dep><x>618.65</x><y>118.6</y><angle>-92</angle><x2>624.25</x2><y2>101.75</y2><angle2>-90</angle2><lat>55.542698600000001</lat><lon>28.6748993</lon></station>
<station><name>Бигосово-стык</name><esr>161698</esr><sign>10</sign><dep>31001</dep><x>566.15</x><y>118.9</y><angle>-92</angle><x2>571.8</x2><y2>101.55</y2><angle2>-90</angle2></station>
<station><name>Полота</name><esr>161255</esr><sign>10</sign><dep>31001</dep><x>638.65</x><y>85.45</y><angle>0</angle><x2>645.5</x2><y2>59.1</y2><angle2>0</angle2><lat>55.603781499999997</lat><lon>29.041347900000002</lon></station>
<station><name>Орша-Восточная-стык</name><esr>166757</esr><sign>10</sign><dep>30501</dep><x>802.15</x><y>252.9</y><angle>0</angle><x2>810.65</x2><y2>234.45</y2><angle2>-1.673</angle2></station>
<station><name>Каледино</name><esr>162807</esr><sign>10</sign><dep>30501</dep><x>416.75</x><y>225.5</y><angle>65</angle><x2>393.35</x2><y2>219.75</y2><angle2>65</angle2><lat>54.299195099999999</lat><lon>26.810804999999998</lon></station>
<station><name>Богданов-стык</name><esr>162440</esr><sign>10</sign><dep>30501</dep><x>349.8</x><y>250.5</y><angle>65</angle><x2>344.25</x2><y2>238.15</y2><angle2>65</angle2></station>
<station><name>Юратишки</name><esr>162402</esr><sign>10</sign><dep>30601</dep><x>332.05</x><y>256.95</y><angle>65</angle><x2>329.35</x2><y2>243.85</y2><angle2>65</angle2><lat>54.064157999999999</lat><lon>25.916983500000001</lon></station>
<station><name>Воложин</name><esr>162607</esr><sign>10</sign><dep>30501</dep><x>382.05</x><y>239.2</y><angle>65</angle><x2>365.6</x2><y2>230.15</y2><angle2>65</angle2><lat>54.220292499999999</lat><lon>26.448899000000001</lon></station>
<station><name>Полочаны</name><esr>162703</esr><sign>10</sign><dep>30501</dep><x>403.85</x><y>230.35</y><angle>65</angle><x2>384.5</x2><y2>223.25</y2><angle2>65</angle2><lat>54.227923199999999</lat><lon>26.7076931</lon></station>
<station><name>Волосковня</name><esr>159113</esr><sign>10</sign><dep>30901</dep><x>916.85</x><y>402.95</y><angle>0</angle><x2>933.15</x2><y2>393.25</y2><angle2>0</angle2><lat>53.450971099999997</lat><lon>32.0404032</lon></station>
<station><name>Жердь</name><esr>154162</esr><sign>10</sign><dep>30801</dep><x>757.1</x><y>568.3</y><angle>-160</angle><x2>768.5</x2><y2>554.25</y2><angle2>32</angle2><lat>52.548581800000001</lat><lon>29.629008899999999</lon></station>
<station><name>Лынтупы</name><esr>164516</esr><sign>11</sign><dep>31001</dep><x>387.15</x><y>165.9</y><angle>-90</angle><x2>385.15</x2><y2>149.8</y2><angle2>-90</angle2><lat>55.041206899999999</lat><lon>26.3108024</lon></station>
<station><name>Сморгонь</name><esr>163301</esr><sign>10</sign><dep>30501</dep><x>400.15</x><y>217.9</y><angle>-90</angle><x2>383.55</x2><y2>203</y2><angle2>-90</angle2><lat>54.475295099999997</lat><lon>26.371312700000001</lon></station>
<station><name>Ошмяны</name><esr>163104</esr><sign>10</sign><dep>30501</dep><x>380.15</x><y>217.9</y><angle>-90</angle><x2>368.35</x2><y2>203</y2><angle2>-90</angle2><lat>54.531386699999999</lat><lon>26.0808532</lon></station>
<station><name>Пруды</name><esr>163509</esr><sign>10</sign><dep>30501</dep><x>426.15</x><y>217.9</y><angle>-90</angle><x2>407.5</x2><y2>203.05</y2><angle2>-90</angle2><lat>54.366230700000003</lat><lon>26.661184200000001</lon></station>
<station><name>Чепино</name><esr>160303</esr><sign>10</sign><dep>31001</dep><x>769.15</x><y>110.9</y><angle>0</angle><x2>780.7</x2><y2>90.8</y2><angle2>0</angle2><lat>55.2112762</lat><lon>30.1342301</lon></station>
<station><name>Вилейка</name><esr>163602</esr><sign>10</sign><dep>30501</dep><x>493.35</x><y>194.05</y><angle>62</angle><x2>499</x2><y2>177.35</y2><angle2>65.176</angle2><lat>54.502557799999998</lat><lon>26.929293000000001</lon></station>
<station><name>Дегтяревка-Техническая</name><esr>143717</esr><sign>10</sign><dep>30501</dep><x>469.15</x><y>319.1</y><angle>163</angle><x2>469.45</x2><y2>304.4</y2><angle2>180</angle2></station>
<station><name>Будслав</name><esr>163802</esr><sign>10</sign><dep>30501</dep><x>524.85</x><y>180.3</y><angle>62</angle><x2>525.75</x2><y2>165.45</y2><angle2>65.131</angle2><lat>54.791203400000001</lat><lon>27.406930599999999</lon></station>
<station><name>Подсвилье</name><esr>165006</esr><sign>10</sign><dep>31001</dep><x>562.7</x><y>164.2</y><angle>62</angle><x2>569.25</x2><y2>146.65</y2><angle2>65.159</angle2><lat>55.1616681</lat><lon>27.976365300000001</lon></station>
<station><name>Парафьянов</name><esr>163903</esr><sign>10</sign><dep>31001</dep><x>544.6</x><y>172.65</y><angle>62</angle><x2>541.2</x2><y2>159</y2><angle2>65.218</angle2><lat>54.8785551</lat><lon>27.602709600000001</lon></station>
<station><name>Кульгаи (рзд)</name><esr>165133</esr><sign>10</sign><dep>31001</dep><x>587.7</x><y>152.9</y><angle>62</angle><x2>587.35</x2><y2>138.85</y2><angle2>65.265</angle2><lat>55.305043300000001</lat><lon>28.295913299999999</lon></station>
<station><name>Боровое</name><esr>165103</esr><sign>10</sign><dep>31001</dep><x>570.75</x><y>160.95</y><angle>62</angle><x2>573.9</x2><y2>144.65</y2><angle2>65.274</angle2><lat>55.214677999999999</lat><lon>28.078815200000001</lon></station>
<station><name>Гудогай-стык</name><esr>163034</esr><sign>10</sign><dep>30501</dep><x>359.15</x><y>217.9</y><angle>-92</angle><x2>352.6</x2><y2>203.2</y2><angle2>-92</angle2></station>
<station><name>Зябки</name><esr>165114</esr><sign>10</sign><dep>31001</dep><x>578.05</x><y>157.75</y><angle>62</angle><x2>578.7</x2><y2>142.6</y2><angle2>65.038</angle2><lat>55.256999999999998</lat><lon>28.174402000000001</lon></station>
<station><name>Куренец (пп)</name><esr>163617</esr><sign>10</sign><dep>30501</dep><x>500.65</x><y>190.8</y><angle>62</angle><x2>503.55</x2><y2>175.15</y2><angle2>65.116</angle2><lat>54.559160499999997</lat><lon>26.9899667</lon></station>
<station><name>Ксты</name><esr>165307</esr><sign>10</sign><dep>31001</dep><x>623.15</x><y>136.9</y><angle>0</angle><x2>634.75</x2><y2>118.45</y2><angle2>65.77</angle2><lat>55.453799099999998</lat><lon>28.720383699999999</lon></station>
<station><name>Новополоцк</name><esr>165504</esr><sign>10</sign><dep>31001</dep><x>577.15</x><y>135.9</y><angle>-16</angle><x2>579.05</x2><y2>119.95</y2><angle2>-28.437</angle2><lat>55.534770399999999</lat><lon>28.645088999999999</lon></station>
<station><name>Шумилино</name><esr>160905</esr><sign>10</sign><dep>31001</dep><x>726.45</x><y>119</y><angle>-90</angle><x2>727.95</x2><y2>101.25</y2><angle2>-90</angle2><lat>55.303565599999999</lat><lon>29.618541</lon></station>
<station><name>Богушевская</name><esr>167001</esr><sign>10</sign><dep>31001</dep><x>797.15</x><y>171.9</y><angle>0</angle><x2>808.75</x2><y2>155.6</y2><angle2>0</angle2><lat>54.842926499999997</lat><lon>30.207142699999999</lon></station>
<station><name>Адамово</name><esr>162012</esr><sign>10</sign><dep>31001</dep><x>606.15</x><y>118.9</y><angle>-92</angle><x2>614.15</x2><y2>101.8</y2><angle2>-90</angle2><lat>55.620831299999999</lat><lon>28.470478100000001</lon></station>
<station><name>Крынки</name><esr>165735</esr><sign>10</sign><dep>31001</dep><x>849.15</x><y>122.9</y><angle>41</angle><x2>863.2</x2><y2>110.65</y2><angle2>-90</angle2><lat>55.031157399999998</lat><lon>30.439603000000002</lon></station>
<station><name>Заольша</name><esr>165608</esr><sign>10</sign><dep>31001</dep><x>871.15</x><y>122.9</y><angle>41</angle><x2>887.8</x2><y2>110.95</y2><angle2>-90</angle2><lat>54.988681300000003</lat><lon>30.9403899</lon></station>
<station><name>Витебск</name><esr>160002</esr><sign>11</sign><dep>31001</dep><x>800.15</x><y>128.9</y><angle>180</angle><x2>812.45</x2><y2>110.75</y2><angle2>180</angle2><lat>55.193019700000001</lat><lon>30.2070437</lon></station>
<station><name>Медведка</name><esr>167105</esr><sign>10</sign><dep>31001</dep><x>800.15</x><y>140.9</y><angle>180</angle><x2>812.45</x2><y2>120.2</y2><angle2>180</angle2><lat>55.139850099999997</lat><lon>30.159044000000002</lon></station>
<station><name>Лиозно</name><esr>165701</esr><sign>10</sign><dep>31001</dep><x>862.15</x><y>122.9</y><angle>41</angle><x2>877.9</x2><y2>110.85</y2><angle2>-90</angle2><lat>55.013510199999999</lat><lon>30.7955358</lon></station>
<station><name>Лосвида</name><esr>160322</esr><sign>10</sign><dep>31001</dep><x>769.15</x><y>100.9</y><angle>0</angle><x2>780.65</x2><y2>80.35</y2><angle2>0</angle2><lat>55.328926000000003</lat><lon>30.0882039</lon></station>
<station><name>Журжево</name><esr>166102</esr><sign>10</sign><dep>31001</dep><x>816.15</x><y>107.9</y><angle>0</angle><x2>829</x2><y2>79.2</y2><angle2>0</angle2><lat>55.182946700000002</lat><lon>30.260216499999999</lon></station>
<station><name>Городок</name><esr>160604</esr><sign>10</sign><dep>31001</dep><x>769.15</x><y>87.9</y><angle>0</angle><x2>780.6</x2><y2>65.9</y2><angle2>0</angle2><lat>55.470883999999998</lat><lon>30.005065500000001</lon></station>
<station><name>Грибачи</name><esr>160731</esr><sign>10</sign><dep>31001</dep><x>769.15</x><y>62.9</y><angle>0</angle><x2>780.65</x2><y2>41.6</y2><angle2>0</angle2><lat>54.054109799999999</lat><lon>30.207691199999999</lon></station>
<station><name>Осиновка</name><esr>169007</esr><sign>10</sign><dep>30501</dep><x>848.4</x><y>222</y><angle>-30</angle><x2>857.7</x2><y2>209.4</y2><angle2>-90</angle2><lat>54.649578699999999</lat><lon>30.658764999999999</lon></station>
<station><name>Замосточье</name><esr>167054</esr><sign>10</sign><dep>31001</dep><x>797.15</x><y>157.9</y><angle>0</angle><x2>808.7</x2><y2>140.85</y2><angle2>0</angle2><lat>55.013376299999997</lat><lon>30.176615399999999</lon></station>
<station><name>Могилев III</name><esr>156613</esr><sign>10</sign><dep>30901</dep><x>785.3</x><y>368.35</y><angle>-50</angle><x2>798.2</x2><y2>359.2</y2><angle2>-90</angle2><lat>53.919492300000002</lat><lon>30.356063299999999</lon></station>
<station><name>Орша-Западная</name><esr>166507</esr><sign>10</sign><dep>30501</dep><x>774.15</x><y>245.9</y><angle>103</angle><x2>785.7</x2><y2>234.45</y2><angle2>141.288</angle2><lat>54.504292100000001</lat><lon>30.375080100000002</lon></station>
<station><name>Червено-стык</name><esr>166628</esr><sign>10</sign><dep>30501</dep><x>770.15</x><y>270.9</y><angle>0</angle><x2>781.1</x2><y2>256.1</y2><angle2>0</angle2></station>
<station><name>Можеевка-стык</name><esr>166742</esr><sign>10</sign><dep>30501</dep><x>796.15</x><y>190.9</y><angle>0</angle><x2>808.75</x2><y2>173.65</y2><angle2>0</angle2></station>
<station><name>Воропаево</name><esr>164408</esr><sign>10</sign><dep>31001</dep><x>455.15</x><y>161.9</y><angle>15</angle><x2>455.45</x2><y2>145.1</y2><angle2>15</angle2><lat>55.141638399999998</lat><lon>27.203652300000002</lon></station>
<station><name>Залесье</name><esr>163405</esr><sign>10</sign><dep>30501</dep><x>415.15</x><y>217.9</y><angle>-90</angle><x2>398.05</x2><y2>203</y2><angle2>-90</angle2><lat>54.421220699999999</lat><lon>26.541074299999998</lon></station>
<station><name>Друя</name><esr>164605</esr><sign>10</sign><dep>31001</dep><x>455.15</x><y>119.9</y><angle>0</angle><x2>455.45</x2><y2>102.4</y2><angle2>0</angle2><lat>55.778365000000001</lat><lon>27.480457000000001</lon></station>
<station><name>Колодищи</name><esr>140808</esr><sign>10</sign><dep>30501</dep><x>580.45</x><y>311.85</y><angle>35</angle><x2>583.35</x2><y2>305.35</y2><angle2>-115</angle2><lat>53.945283699999997</lat><lon>27.774527599999999</lon></station>
<station><name>Миоры</name><esr>164709</esr><sign>10</sign><dep>31001</dep><x>455.15</x><y>131.9</y><angle>0</angle><x2>455.45</x2><y2>109.35</y2><angle2>0</angle2><lat>55.625798400000001</lat><lon>27.607213999999999</lon></station>
<station><name>Шарковщизна</name><esr>164802</esr><sign>10</sign><dep>31001</dep><x>455.15</x><y>143.9</y><angle>0</angle><x2>455.25</x2><y2>119.4</y2><angle2>0</angle2><lat>55.368240299999997</lat><lon>27.470562699999999</lon></station>
<station><name>Поставы</name><esr>164304</esr><sign>10</sign><dep>31001</dep><x>421.15</x><y>165.9</y><angle>-90</angle><x2>413.25</x2><y2>149.6</y2><angle2>-90</angle2><lat>55.123276599999997</lat><lon>26.857532599999999</lon></station>
<station><name>Загатье</name><esr>165148</esr><sign>10</sign><dep>31001</dep><x>594.95</x><y>149.7</y><angle>62</angle><x2>592.2</x2><y2>136.7</y2><angle2>65.514</angle2><lat>55.346169600000003</lat><lon>28.3460562</lon></station>
<station><name>Парафьенов-стык</name><esr>163937</esr><sign>10</sign><dep>31001</dep><x>537.7</x><y>174.7</y><angle>62</angle><x2>538.3</x2><y2>160.15</y2><angle2>65.17</angle2></station>
<station><name>Заольша-стык</name><esr>165627</esr><sign>10</sign><dep>31001</dep><x>883.15</x><y>122.9</y><angle>41</angle><x2>895.7</x2><y2>111</y2><angle2>-90</angle2></station>
<station><name>Ходосы</name><esr>158303</esr><sign>10</sign><dep>30901</dep><x>869.15</x><y>334.9</y><angle>-11</angle><x2>867.65</x2><y2>305.65</y2><angle2>-40</angle2><lat>53.928794400000001</lat><lon>31.480569500000001</lon></station>
<station><name>Хлюстино</name><esr>168907</esr><sign>10</sign><dep>30501</dep><x>836.8</x><y>221.3</y><angle>-30</angle><x2>852.65</x2><y2>209.4</y2><angle2>-90</angle2><lat>54.6207432</lat><lon>30.5637744</lon></station>
<station><name>Заболотинка</name><esr>165754</esr><sign>10</sign><dep>31001</dep><x>839.15</x><y>122.9</y><angle>41</angle><x2>853.85</x2><y2>110.6</y2><angle2>-90</angle2><lat>55.111326400000003</lat><lon>30.2979974</lon></station>
<station><name>Хлусово</name><esr>166422</esr><sign>10</sign><dep>30501</dep><x>824.1</x><y>220.6</y><angle>-30</angle><x2>848.35</x2><y2>209.4</y2><angle2>-90</angle2><lat>54.595282500000003</lat><lon>30.433523399999999</lon></station>
<station><name>Можеевка</name><esr>166723</esr><sign>10</sign><dep>30501</dep><x>796.15</x><y>194.9</y><angle>0</angle><x2>808.65</x2><y2>176.4</y2><angle2>0</angle2><lat>54.566156300000003</lat><lon>30.410647399999998</lon></station>
<station><name>Витьба</name><esr>166009</esr><sign>10</sign><dep>31001</dep><x>816.15</x><y>99.9</y><angle>0</angle><x2>828.8</x2><y2>74.3</y2><angle2>0</angle2><lat>55.2219567</lat><lon>30.268109800000001</lon></station>
<station><name>Лучеса</name><esr>165769</esr><sign>10</sign><dep>31001</dep><x>813.15</x><y>123.9</y><angle>41</angle><x2>824.35</x2><y2>110</y2><angle2>-90.985</angle2><lat>54.902290000000001</lat><lon>30.345960000000002</lon></station>
<station><name>Новолукомль</name><esr>168409</esr><sign>10</sign><dep>30501</dep><x>642.15</x><y>225.9</y><angle>0</angle><x2>649.2</x2><y2>211.2</y2><angle2>0</angle2><lat>54.658393099999998</lat><lon>29.149199800000002</lon></station>
<station><name>Лемница</name><esr>168633</esr><sign>10</sign><dep>30501</dep><x>695</x><y>212.6</y><angle>-89</angle><x2>702.75</x2><y2>198.05</y2><angle2>-90</angle2><lat>54.639405199999999</lat><lon>29.896713200000001</lon></station>
<station><name>Заслоново</name><esr>168201</esr><sign>10</sign><dep>30501</dep><x>632.15</x><y>211.9</y><angle>-89</angle><x2>636.3</x2><y2>197.6</y2><angle2>-90</angle2><lat>54.874339599999999</lat><lon>28.930891299999999</lon></station>
<station><name>Придвинская</name><esr>165909</esr><sign>10</sign><dep>31001</dep><x>816.15</x><y>91.9</y><angle>0</angle><x2>828.7</x2><y2>69.25</y2><angle2>0</angle2><lat>55.284231800000001</lat><lon>30.302695</lon></station>
<station><name>Осиновка (эксп.)</name><esr>169100</esr><sign>11</sign><dep>30501</dep><x>858.65</x><y>222.7</y><angle>-30</angle><x2>862.45</x2><y2>209.5</y2><angle2>-90</angle2></station>
<station><name>Смольяны</name><esr>168700</esr><sign>10</sign><dep>30501</dep><x>726.15</x><y>212.9</y><angle>-89</angle><x2>722.1</x2><y2>198.1</y2><angle2>-90</angle2><lat>54.628505500000003</lat><lon>30.155253200000001</lon></station>
<station><name>Михалки</name><esr>151338</esr><sign>10</sign><dep>30801</dep><x>667.15</x><y>655.9</y><angle>-180</angle><x2>674.35</x2><y2>653.8</y2><angle2>180</angle2><lat>51.952779499999998</lat><lon>29.205282199999999</lon></station>
<station><name>Мозырь</name><esr>151709</esr><sign>10</sign><dep>30801</dep><x>663.15</x><y>639.9</y><angle>0</angle><x2>674.35</x2><y2>642.7</y2><angle2>180</angle2><lat>52.0749049</lat><lon>29.2033649</lon></station>
<station><name>Пхов (эксп.)</name><esr>153901</esr><sign>10</sign><dep>30801</dep><x>662.7</x><y>634.4</y><angle>0</angle><x2>674.25</x2><y2>631.15</y2><angle2>180</angle2></station>
<station><name>Беларусь</name><esr>143609</esr><sign>10</sign><dep>30501</dep><x>488.55</x><y>284.4</y><angle>-30</angle><x2>488.95</x2><y2>270.2</y2><angle2>-30</angle2><lat>54.008877900000002</lat><lon>27.2840062</lon></station>
<station><name>Старосельский</name><esr>155911</esr><sign>10</sign><dep>30901</dep><x>756.15</x><y>433.9</y><angle>0</angle><x2>766.45</x2><y2>424.8</y2><angle2>0</angle2><lat>53.198853700000001</lat><lon>30.092592199999999</lon></station>
<station><name>Тощица</name><esr>156030</esr><sign>10</sign><dep>30901</dep><x>756.15</x><y>425.9</y><angle>0</angle><x2>766.4</x2><y2>420.1</y2><angle2>0</angle2><lat>53.3047434</lat><lon>30.128505000000001</lon></station>
<station><name>Кричев I</name><esr>158209</esr><sign>11</sign><dep>30901</dep><x>904.75</x><y>369.9</y><angle>-90</angle><x2>917.55</x2><y2>359.25</y2><angle2>-90</angle2><lat>53.739070599999998</lat><lon>31.7108855</lon></station>
<station><name>Алеща</name><esr>161607</esr><sign>10</sign><dep>31001</dep><x>639.15</x><y>70.9</y><angle>0</angle><x2>645.5</x2><y2>49.4</y2><angle2>0</angle2><lat>55.733668000000002</lat><lon>29.325415799999998</lon></station>
<station><name>Свольно</name><esr>161819</esr><sign>10</sign><dep>31001</dep><x>590.15</x><y>118.9</y><angle>-92</angle><x2>595</x2><y2>101.55</y2><angle2>-90</angle2><lat>55.754269700000002</lat><lon>28.108725799999998</lon></station>
<station><name>Крыжовка (пп)</name><esr>143628</esr><sign>10</sign><dep>30501</dep><x>493.35</x><y>293.25</y><angle>-30</angle><x2>494.9</x2><y2>280.05</y2><angle2>-30</angle2><lat>53.952073800000001</lat><lon>27.315418300000001</lon></station>
<station><name>Полоцк</name><esr>161306</esr><sign>11</sign><dep>31001</dep><x>626.15</x><y>118.9</y><angle>-92</angle><x2>631.75</x2><y2>101.8</y2><angle2>-90</angle2><lat>55.491981000000003</lat><lon>28.782844000000001</lon></station>
<station><name>Ловча</name><esr>133433</esr><sign>10</sign><dep>30701</dep><x>386.9</x><y>572.35</y><angle>115</angle><x2>338.95</x2><y2>553.95</y2><angle2>110</angle2><lat>52.296750299999999</lat><lon>26.616711500000001</lon></station>
<station><name>Слуцк-Стык</name><esr>148706</esr><sign>10</sign><dep>30901</dep><x>485.15</x><y>481.9</y><angle>-68</angle><x2>487</x2><y2>475.05</y2><angle2>-90</angle2></station>
<station><name>Езерище (эксп.)</name><esr>161005</esr><sign>11</sign><dep>31001</dep><x>769.15</x><y>51.9</y><angle>0</angle><x2>780.7</x2><y2>33.3</y2><angle2>0</angle2></station>
<station><name>Бурбин</name><esr>168606</esr><sign>10</sign><dep>30501</dep><x>679.7</x><y>212.6</y><angle>-89</angle><x2>687.9</x2><y2>197.85</y2><angle2>-90</angle2><lat>54.712900099999999</lat><lon>29.648547100000002</lon></station>
<station><name>Белынковичи (эксп.)</name><esr>159306</esr><sign>11</sign><dep>30901</dep><x>916.85</x><y>428.75</y><angle>0</angle><x2>933.15</x2><y2>412.5</y2><angle2>0</angle2></station>
<station><name>Бринево</name><esr>153314</esr><sign>10</sign><dep>30801</dep><x>555.45</x><y>605.4</y><angle>99</angle><x2>556.35</x2><y2>600.65</y2><angle2>99</angle2><lat>52.252864099999996</lat><lon>28.000366799999998</lon></station>
<station><name>Рабкор</name><esr>147205</esr><sign>10</sign><dep>30901</dep><x>683.15</x><y>575.9</y><angle>180</angle><x2>686.6</x2><y2>567.6</y2><angle2>0</angle2><lat>52.612642899999997</lat><lon>28.8463973</lon></station>
<station><name>Терюха-стык</name><esr>150354</esr><sign>10</sign><dep>30801</dep><x>852.3</x><y>703.05</y><angle>-117</angle><x2>871.25</x2><y2>695.55</y2><angle2>65</angle2></station>
<station><name>Лахва</name><esr>151944</esr><sign>10</sign><dep>30601</dep><x>461.1</x><y>589.3</y><angle>99</angle><x2>487.4</x2><y2>589.25</y2><angle2>99</angle2><lat>52.223163399999997</lat><lon>27.078464499999999</lon></station>
<station><name>Житомля</name><esr>135335</esr><sign>10</sign><dep>30601</dep><x>134.4</x><y>302.95</y><angle>-75</angle><x2>124.95</x2><y2>291.4</y2><angle2>-75</angle2><lat>53.618158100000002</lat><lon>24.109082699999998</lon></station>
<station><name>Дретунь</name><esr>161518</esr><sign>10</sign><dep>31001</dep><x>639.15</x><y>77.9</y><angle>0</angle><x2>645.5</x2><y2>54.6</y2><angle2>0</angle2><lat>55.698586599999999</lat><lon>29.213850300000001</lon></station>
<station><name>Лудчицы</name><esr>156011</esr><sign>10</sign><dep>30901</dep><x>756.15</x><y>417.9</y><angle>0</angle><x2>766.45</x2><y2>415</y2><angle2>0</angle2><lat>53.404821800000001</lat><lon>30.1632502</lon></station>
<station><name>Быхов</name><esr>156100</esr><sign>10</sign><dep>30901</dep><x>756.15</x><y>408.9</y><angle>0</angle><x2>766.3</x2><y2>405.3</y2><angle2>0</angle2><lat>53.515256100000002</lat><lon>30.230905199999999</lon></station>
<station><name>Лотва</name><esr>156543</esr><sign>10</sign><dep>30901</dep><x>770.15</x><y>319.9</y><angle>0</angle><x2>780.95</x2><y2>298.85</y2><angle2>0</angle2><lat>54.094000899999998</lat><lon>30.269472400000001</lon></station>
<station><name>Савичи</name><esr>147722</esr><sign>10</sign><dep>30901</dep><x>700.15</x><y>497.9</y><angle>-90</angle><x2>705.3</x2><y2>491.35</y2><angle2>-90</angle2><lat>53.086187500000001</lat><lon>29.3715358</lon></station>
<station><name>РЕЗЕРВНАЯ СТАНЦИЯ</name><esr>146700</esr><sign>0</sign><dep>30901</dep><x>133.65</x><y>669.8</y><angle>0</angle><x2>133.65</x2><y2>669.8</y2><angle2>0</angle2></station>
<station><name>Лесная</name><esr>134402</esr><sign>10</sign><dep>30701</dep><x>250.55</x><y>448.1</y><angle>50</angle><x2>249.3</x2><y2>440.95</y2><angle2>-128</angle2><lat>52.980252499999999</lat><lon>25.7676795</lon></station>
<station><name>Горынь-стык</name><esr>139213</esr><sign>10</sign><dep>30601</dep><x>452.05</x><y>628.25</y><angle>154</angle><x2>444.7</x2><y2>610.6</y2><angle2>145</angle2></station>
<station><name>Негорелое</name><esr>144404</esr><sign>10</sign><dep>30501</dep><x>431.25</x><y>371.5</y><angle>50</angle><x2>430.1</x2><y2>366.65</y2><angle2>-105</angle2><lat>53.607151100000003</lat><lon>27.072553299999999</lon></station>
<station><name>Верейцы-стык</name><esr>146096</esr><sign>10</sign><dep>30901</dep><x>614.35</x><y>431.15</y><angle>155</angle><x2>620.25</x2><y2>421.15</y2><angle2>135</angle2></station>
<station><name>Терюха</name><esr>150301</esr><sign>11</sign><dep>30801</dep><x>863.6</x><y>698.2</y><angle>-117</angle><x2>878.5</x2><y2>692.5</y2><angle2>65</angle2><lat>52.213673399999998</lat><lon>31.1016403</lon></station>
<station><name>Татарка</name><esr>146715</esr><sign>10</sign><dep>30901</dep><x>650.8</x><y>468.95</y><angle>-35</angle><x2>658.2</x2><y2>457.7</y2><angle2>133</angle2><lat>53.256251200000001</lat><lon>28.829225600000001</lon></station>
<station><name>Добруш</name><esr>150509</esr><sign>10</sign><dep>30801</dep><x>938.15</x><y>637.9</y><angle>27</angle><x2>959.5</x2><y2>634.35</y2><angle2>65</angle2><lat>52.398497200000001</lat><lon>31.320271200000001</lon></station>
<station><name>Княжица</name><esr>160021</esr><sign>10</sign><dep>31001</dep><x>754.15</x><y>118.9</y><angle>-90</angle><x2>757.25</x2><y2>101.1</y2><angle2>-90</angle2><lat>55.182766000000001</lat><lon>30.020056</lon></station>
<station><name>Полоцк парк Громы</name><esr>161236</esr><sign>11</sign><dep>31001</dep><x>638.15</x><y>104.9</y><angle>-108</angle><x2>644.85</x2><y2>84.4</y2><angle2>-29.301</angle2><lat>55.492899199999997</lat><lon>28.815591399999999</lon></station>
<station><name>Богданов</name><esr>162506</esr><sign>10</sign><dep>30501</dep><x>358.65</x><y>247.3</y><angle>65</angle><x2>347.55</x2><y2>236.95</y2><angle2>65</angle2><lat>54.171208300000004</lat><lon>26.153778800000001</lon></station>
<station><name>Гудогай</name><esr>163000</esr><sign>10</sign><dep>30501</dep><x>370.15</x><y>217.9</y><angle>-90</angle><x2>358.9</x2><y2>203.15</y2><angle2>-90</angle2><lat>54.596739499999998</lat><lon>25.892766999999999</lon></station>
<station><name>Крулевщизна</name><esr>164003</esr><sign>11</sign><dep>31001</dep><x>553</x><y>169.05</y><angle>62</angle><x2>556.5</x2><y2>152.3</y2><angle2>65.253</angle2><lat>55.028440600000003</lat><lon>27.781690699999999</lon></station>
<station><name>Заольша (эксп.)</name><esr>165805</esr><sign>11</sign><dep>31001</dep><x>877.15</x><y>122.9</y><angle>41</angle><x2>891.75</x2><y2>110.95</y2><angle2>-90</angle2></station>
<station><name>Мотыкалы</name><esr>130401</esr><sign>10</sign><dep>30701</dep><x>104.55</x><y>477.15</y><angle>0</angle><x2>92.7</x2><y2>467.4</y2><angle2>0</angle2><lat>52.208398899999999</lat><lon>23.5818917</lon></station>
<station><name>Стайки</name><esr>166761</esr><sign>10</sign><dep>30501</dep><x>797.15</x><y>181.9</y><angle>0</angle><x2>808.75</x2><y2>165</y2><angle2>0</angle2><lat>54.685156599999999</lat><lon>30.316686199999999</lon></station>
<station><name>Гомель-Северный</name><esr>150138</esr><sign>10</sign><dep>30801</dep><x>845.15</x><y>633.9</y><angle>-161</angle><x2>859.4</x2><y2>631.55</y2><angle2>-150</angle2><lat>52.4561998</lat><lon>30.9451973</lon></station>
<station><name>Лыщицы</name><esr>132204</esr><sign>10</sign><dep>30701</dep><x>104.55</x><y>464.25</y><angle>0</angle><x2>92.8</x2><y2>453.05</y2><angle2>0</angle2><lat>52.257928900000003</lat><lon>23.494268600000002</lon></station>
<station><name>Минск-Северный</name><esr>140102</esr><sign>10</sign><dep>30501</dep><x>511.1</x><y>321.5</y><angle>-30</angle><x2>512.1</x2><y2>308.95</y2><angle2>-30</angle2><lat>53.906214800000001</lat><lon>27.525535600000001</lon></station>
<station><name>Дегтяревка</name><esr>143702</esr><sign>10</sign><dep>30501</dep><x>469.15</x><y>312.65</y><angle>164</angle><x2>469.2</x2><y2>301.2</y2><angle2>180</angle2><lat>53.892773599999998</lat><lon>27.349777599999999</lon></station>
<station><name>Калий III</name><esr>148301</esr><sign>10</sign><dep>30901</dep><x>517.5</x><y>523.95</y><angle>0</angle><x2>519.85</x2><y2>515.7</y2><angle2>0</angle2><lat>52.866211100000001</lat><lon>27.577843900000001</lon></station>
<station><name>Рогачев-стык</name><esr>155930</esr><sign>10</sign><dep>0</dep><x>756.15</x><y>439.9</y><angle>0</angle><x2>766.65</x2><y2>429.2</y2><angle2>0</angle2></station>
<station><name>Сенозавод</name><esr>154815</esr><sign>10</sign><dep>30801</dep><x>803.15</x><y>644.9</y><angle>95</angle><x2>800.65</x2><y2>644.8</y2><angle2>-80</angle2><lat>52.3730744</lat><lon>30.4791667</lon></station>
<station><name>Луполово</name><esr>157705</esr><sign>10</sign><dep>30901</dep><x>796.65</x><y>368</y><angle>-50</angle><x2>809.9</x2><y2>359.1</y2><angle2>-90</angle2><lat>53.876958500000001</lat><lon>30.404059799999999</lon></station>
<station><name>Ситница</name><esr>152006</esr><sign>10</sign><dep>30601</dep><x>495</x><y>594.95</y><angle>99</angle><x2>506.6</x2><y2>592.4</y2><angle2>99</angle2><lat>52.208374599999999</lat><lon>27.4067328</lon></station>
<station><name>Красный Берег-стык</name><esr>147845</esr><sign>10</sign><dep>30801</dep><x>734.15</x><y>497.9</y><angle>-90</angle><x2>738.95</x2><y2>491.25</y2><angle2>-90</angle2></station>
<station><name>Бобровники</name><esr>164200</esr><sign>10</sign><dep>30501</dep><x>377.15</x><y>163.9</y><angle>-93</angle><x2>377.15</x2><y2>163.9</y2><angle2>-93</angle2><lat>53.123744700000003</lat><lon>23.888351100000001</lon></station>
<station><name>Минск-Восточный</name><esr>140304</esr><sign>10</sign><dep>30501</dep><x>550.6</x><y>324.75</y><angle>35</angle><x2>559.6</x2><y2>314.8</y2><angle2>-88.469</angle2><lat> 53,8906709</lat><lon>27,5857951</lon></station>
</stations>